$GNRMC,192142.00,A,5320.66915,N,00615.27231,W,0.021,,070725,,,A,V*01
$GNVTG,,T,,M,0.021,N,0.038,K,A*35
$GNGGA,192142.00,5320.66915,N,00615.27231,W,1,12,1.17,0.5,M,52.9,M,,*5C
$GNGSA,A,3,13,15,30,24,14,05,18,07,,,,,1.85,1.17,1.42,1*00
$GNGSA,A,3,70,85,68,78,79,80,69,,,,,,1.85,1.17,1.42,2*0C
$GNGSA,A,3,06,09,11,04,36,,,,,,,,1.85,1.17,1.42,3*01
$GNGSA,A,3,24,26,33,14,21,,,,,,,,1.85,1.17,1.42,4*0C
$GPGSV,4,1,14,05,55,198,43,07,14,059,26,08,07,029,,13,84,308,36,1*68
$GPGSV,4,2,14,14,43,115,29,15,48,287,44,18,23,296,44,20,28,179,,1*6C
$GPGSV,4,3,14,21,28,165,,22,35,134,,23,15,319,,24,10,238,38,1*66
$GPGSV,4,4,14,27,02,357,,30,45,066,23,1*64
$GLGSV,3,1,09,68,22,117,27,69,72,092,25,70,34,309,34,78,36,040,27,1*7F
$GLGSV,3,2,09,79,67,126,29,80,24,187,44,85,13,275,30,86,19,332,22,1*79
$GLGSV,3,3,09,87,06,013,,1*4A
$GAGSV,3,1,12,04,83,080,27,06,68,282,35,09,42,280,45,10,04,209,,7*7C
$GAGSV,3,2,12,11,19,231,31,19,24,096,,21,33,059,,23,38,126,21,7*79
$GAGSV,3,3,12,27,01,019,,31,08,170,29,34,14,336,,36,31,284,46,7*74
$GBGSV,2,1,07,09,03,053,,10,11,072,,14,80,263,38,21,16,129,19,1*7D
$GBGSV,2,2,07,24,39,190,39,26,64,107,27,33,53,297,46,1*42
$GNGLL,5320.66915,N,00615.27231,W,192142.00,A,A*66
$GNRMC,192143.00,A,5320.66920,N,00615.27206,W,0.065,,070725,,,A,V*02
$GNVTG,,T,,M,0.065,N,0.120,K,A*3D
$GNGGA,192143.00,5320.66920,N,00615.27206,W,1,12,1.55,0.4,M,52.9,M,,*58
$GNGSA,A,3,13,15,30,24,14,05,18,07,,,,,2.41,1.55,1.84,1*07
$GNGSA,A,3,70,85,68,78,79,80,69,,,,,,2.41,1.55,1.84,2*0B
$GNGSA,A,3,06,09,11,04,36,,,,,,,,2.41,1.55,1.84,3*06
$GNGSA,A,3,24,26,33,14,21,,,,,,,,2.41,1.55,1.84,4*0B
$GPGSV,4,1,14,05,55,198,43,07,14,059,26,08,07,029,,13,84,308,36,1*68
$GPGSV,4,2,14,14,43,115,28,15,48,287,44,18,23,296,44,20,28,179,,1*6D
$GPGSV,4,3,14,21,28,165,,22,35,134,,23,15,319,,24,10,238,39,1*67
$GPGSV,4,4,14,27,02,357,,30,45,066,23,1*64
$GLGSV,3,1,09,68,22,117,27,69,72,092,24,70,34,309,34,78,36,040,28,1*71
$GLGSV,3,2,09,79,67,126,27,80,24,187,44,85,13,275,29,86,19,332,22,1*7F
$GLGSV,3,3,09,87,06,013,,1*4A
$GAGSV,3,1,12,04,83,080,27,06,68,282,35,09,42,280,45,10,04,209,,7*7C
$GAGSV,3,2,12,11,19,231,31,19,24,096,,21,33,059,,23,38,126,18,7*73
$GAGSV,3,3,12,27,01,019,,31,09,170,28,34,14,336,,36,31,284,46,7*74
$GBGSV,2,1,07,09,03,053,,10,11,072,,14,80,263,38,21,16,129,19,1*7D
$GBGSV,2,2,07,24,39,190,38,26,64,107,27,33,53,297,46,1*43
$GNGLL,5320.66920,N,00615.27206,W,192143.00,A,A*65
$GNRMC,192144.00,A,5320.66915,N,00615.27205,W,0.081,,070725,,,A,V*0A
$GNVTG,,T,,M,0.081,N,0.150,K,A*30
$GNGGA,192144.00,5320.66915,N,00615.27205,W,1,12,0.89,0.5,M,52.9,M,,*5B
$GNGSA,A,3,13,15,30,24,14,05,18,07,,,,,1.48,0.89,1.18,1*08
$GNGSA,A,3,70,85,68,78,79,80,69,,,,,,1.48,0.89,1.18,2*04
$GNGSA,A,3,06,09,11,04,36,,,,,,,,1.48,0.89,1.18,3*09
$GNGSA,A,3,24,26,33,14,21,,,,,,,,1.48,0.89,1.18,4*04
$GPGSV,4,1,14,05,55,198,43,07,14,059,27,08,07,029,,13,84,308,36,1*69
$GPGSV,4,2,14,14,43,115,29,15,48,287,44,18,23,296,45,20,28,179,,1*6D
$GPGSV,4,3,14,21,28,165,,22,35,134,,23,15,319,,24,10,238,39,1*67
$GPGSV,4,4,14,27,02,357,,30,45,066,22,1*65
$GLGSV,3,1,09,68,22,117,28,69,72,092,23,70,34,309,34,78,36,040,30,1*70
$GLGSV,3,2,09,79,67,126,24,80,24,187,44,85,13,275,28,86,19,332,21,1*7E
$GLGSV,3,3,09,87,06,013,,1*4A
$GAGSV,3,1,12,04,83,080,28,06,68,282,34,09,42,280,45,10,04,209,,7*72
$GAGSV,3,2,12,11,19,231,31,19,24,096,,21,33,059,,23,38,126,17,7*7C
$GAGSV,3,3,12,27,01,019,,31,09,170,27,34,14,336,,36,31,284,46,7*7B
$GBGSV,2,1,07,09,03,053,,10,11,072,,14,80,263,38,21,16,129,18,1*7C
$GBGSV,2,2,07,24,39,190,38,26,64,107,27,33,53,297,47,1*42
$GNGLL,5320.66915,N,00615.27205,W,192144.00,A,A*67
$GNRMC,192145.00,A,5320.66908,N,00615.27210,W,0.029,,070725,,,A,V*01
$GNVTG,,T,,M,0.029,N,0.054,K,A*37
$GNGGA,192145.00,5320.66908,N,00615.27210,W,1,12,0.89,0.6,M,52.9,M,,*51
$GNGSA,A,3,13,15,30,24,14,05,18,07,,,,,1.48,0.89,1.18,1*08
$GNGSA,A,3,70,85,68,78,79,80,69,,,,,,1.48,0.89,1.18,2*04
$GNGSA,A,3,06,09,11,04,36,,,,,,,,1.48,0.89,1.18,3*09
$GNGSA,A,3,24,26,33,14,21,,,,,,,,1.48,0.89,1.18,4*04
$GPGSV,4,1,14,05,55,198,43,07,14,059,28,08,07,029,,13,84,308,36,1*66
$GPGSV,4,2,14,14,43,115,31,15,48,287,43,18,23,296,45,20,28,179,,1*63
$GPGSV,4,3,14,21,28,165,,22,35,134,,23,15,319,,24,10,238,39,1*67
$GPGSV,4,4,14,27,02,357,,30,45,066,24,1*63
$GLGSV,3,1,09,68,22,117,28,69,72,092,24,70,34,309,34,78,36,040,31,1*76
$GLGSV,3,2,09,79,67,126,24,80,24,187,44,85,13,275,28,86,19,332,21,1*7E
$GLGSV,3,3,09,87,06,013,,1*4A
$GAGSV,3,1,12,04,83,080,28,06,68,282,34,09,42,280,45,10,04,209,,7*72
$GAGSV,3,2,12,11,19,231,31,19,24,096,,21,33,059,,23,38,126,17,7*7C
$GAGSV,3,3,12,27,01,019,,31,09,170,25,34,14,335,,36,31,284,46,7*7A
$GBGSV,2,1,07,09,03,053,,10,11,072,,14,80,263,38,21,16,129,19,1*7D
$GBGSV,2,2,07,24,39,190,38,26,64,107,27,33,53,297,47,1*42
$GNGLL,5320.66908,N,00615.27210,W,192145.00,A,A*6E
$GNRMC,192146.00,A,5320.66897,N,00615.27234,W,0.032,,070725,,,A,V*09
$GNVTG,,T,,M,0.032,N,0.059,K,A*30
$GNGGA,192146.00,5320.66897,N,00615.27234,W,1,12,0.82,0.9,M,52.9,M,,*57
$GNGSA,A,3,13,15,30,24,14,05,18,07,,,,,1.39,0.82,1.13,1*0E
$GNGSA,A,3,70,85,68,78,79,80,69,,,,,,1.39,0.82,1.13,2*02
$GNGSA,A,3,06,09,11,04,36,,,,,,,,1.39,0.82,1.13,3*0F
$GNGSA,A,3,24,26,33,14,21,,,,,,,,1.39,0.82,1.13,4*02
$GPGSV,4,1,14,05,55,198,43,07,14,059,29,08,07,029,,13,84,308,36,1*67
$GPGSV,4,2,14,14,43,115,31,15,48,287,44,18,23,296,45,20,28,179,,1*64
$GPGSV,4,3,14,21,28,165,,22,35,134,,23,15,319,,24,10,238,39,1*67
$GPGSV,4,4,14,27,02,357,,30,45,066,26,1*61
$GLGSV,3,1,09,68,22,117,29,69,72,092,22,70,34,309,34,78,36,040,32,1*72
$GLGSV,3,2,09,79,67,126,24,80,24,187,45,85,13,275,28,86,19,332,20,1*7E
$GLGSV,3,3,09,87,06,013,,1*4A
$GAGSV,3,1,12,04,83,080,27,06,68,282,34,09,42,280,45,10,04,209,,7*7D
$GAGSV,3,2,12,11,19,231,31,19,24,096,,21,33,059,,23,38,126,16,7*7D
$GAGSV,3,3,12,27,01,019,,31,09,170,24,34,14,335,,36,31,284,47,7*7A
$GBGSV,2,1,07,09,03,053,,10,11,072,,14,80,263,39,21,16,129,21,1*77
$GBGSV,2,2,07,24,39,190,37,26,64,107,26,33,53,297,47,1*4C
$GNGLL,5320.66897,N,00615.27234,W,192146.00,A,A*6C
$GNRMC,192147.00,A,5320.66893,N,00615.27235,W,0.027,,070725,,,A,V*09
$GNVTG,,T,,M,0.027,N,0.050,K,A*3D
$GNGGA,192147.00,5320.66893,N,00615.27235,W,1,12,0.89,1.0,M,52.9,M,,*50
$GNGSA,A,3,13,15,30,24,14,05,18,07,,,,,1.48,0.89,1.18,1*08
$GNGSA,A,3,70,85,68,78,79,80,69,,,,,,1.48,0.89,1.18,2*04
$GNGSA,A,3,06,09,11,04,36,,,,,,,,1.48,0.89,1.18,3*09
$GNGSA,A,3,24,26,33,14,21,,,,,,,,1.48,0.89,1.18,4*04
$GPGSV,4,1,14,05,55,198,41,07,14,059,28,08,07,029,,13,84,308,35,1*67
$GPGSV,4,2,14,14,43,115,21,15,48,287,40,18,23,296,44,20,28,179,,1*60
$GPGSV,4,3,14,21,28,165,,22,35,134,,23,15,319,,24,10,238,39,1*67
$GPGSV,4,4,14,27,02,357,,30,45,066,27,1*60
$GLGSV,3,1,09,68,22,117,29,69,72,092,22,70,34,309,35,78,36,040,32,1*73
$GLGSV,3,2,09,79,67,126,22,80,24,187,43,85,13,275,30,86,19,332,20,1*77
$GLGSV,3,3,09,87,06,013,,1*4A
$GAGSV,3,1,12,04,83,080,27,06,68,282,38,09,42,280,45,10,04,209,,7*71
$GAGSV,3,2,12,11,19,231,33,19,24,096,,21,33,059,,23,38,126,17,7*7E
$GAGSV,3,3,12,27,01,019,,31,09,170,24,34,14,335,,36,31,284,48,7*75
$GBGSV,2,1,07,09,03,054,,10,11,072,,14,80,263,39,21,16,129,24,1*75
$GBGSV,2,2,07,24,39,190,40,26,64,107,24,33,53,297,45,1*4C
$GNGLL,5320.66893,N,00615.27235,W,192147.00,A,A*68
$GNRMC,192148.00,A,5320.66893,N,00615.27228,W,0.010,,070725,,,A,V*0E
$GNVTG,,T,,M,0.010,N,0.018,K,A*35
$GNGGA,192148.00,5320.66893,N,00615.27228,W,1,12,0.89,1.0,M,52.9,M,,*53
$GNGSA,A,3,13,15,30,24,14,05,18,07,,,,,1.48,0.89,1.18,1*08
$GNGSA,A,3,70,85,68,78,79,80,69,,,,,,1.48,0.89,1.18,2*04
$GNGSA,A,3,06,09,11,04,36,,,,,,,,1.48,0.89,1.18,3*09
$GNGSA,A,3,24,26,33,14,21,,,,,,,,1.48,0.89,1.18,4*04
$GPGSV,4,1,14,05,55,198,41,07,14,059,27,08,07,029,,13,84,308,34,1*69
$GPGSV,4,2,14,14,43,115,24,15,48,287,40,18,23,296,44,20,28,179,,1*65
$GPGSV,4,3,14,21,28,165,,22,35,134,,23,15,319,,24,10,238,39,1*67
$GPGSV,4,4,14,27,02,357,,30,45,066,28,1*6F
$GNRMC,192155.00,A,5320.66831,N,00615.27425,W,0.089,,070725,,,A,V*01
$GNVTG,,T,,M,0.089,N,0.164,K,A*3F
$GNGGA,192155.00,5320.66831,N,00615.27425,W,1,12,0.70,3.2,M,52.9,M,,*5A
$GNGSA,A,3,13,15,30,24,14,05,18,07,,,,,1.17,0.70,0.95,1*00
$GNGSA,A,3,70,85,68,78,79,80,69,,,,,,1.17,0.70,0.95,2*0C
$GNGSA,A,3,06,09,11,04,36,,,,,,,,1.17,0.70,0.95,3*01
$GNGSA,A,3,24,26,33,14,21,,,,,,,,1.17,0.70,0.95,4*0C
$GPGSV,4,1,14,05,55,198,41,07,14,059,25,08,07,029,,13,84,308,33,1*6C
$GPGSV,4,2,14,14,43,115,28,15,48,287,42,18,23,296,44,20,28,179,,1*6B
$GPGSV,4,3,14,21,28,165,,22,35,134,,23,15,319,,24,10,238,38,1*66
$GPGSV,4,4,14,27,02,357,,30,45,066,31,1*67
$GLGSV,3,1,09,68,22,117,31,69,72,092,23,70,34,309,35,78,36,040,29,1*71
$GLGSV,3,2,09,79,67,126,26,80,24,187,40,85,13,275,29,86,19,332,22,1*7A
$GLGSV,3,3,09,87,06,013,,1*4A
$GAGSV,3,1,12,04,83,080,28,06,68,282,37,09,42,280,41,10,04,209,,7*75
$GAGSV,3,2,12,11,19,231,33,19,24,096,,21,33,059,,23,38,126,25,7*7F
$GAGSV,3,3,12,27,01,019,,31,09,170,26,34,14,335,,36,31,284,46,7*79
$GBGSV,2,1,07,09,03,054,,10,11,072,,14,80,259,35,21,16,130,26,1*7A
$GBGSV,2,2,07,24,39,190,41,26,64,107,23,33,53,297,44,1*4B
$GNGLL,5320.66831,N,00615.27425,W,192155.00,A,A*64
$GNRMC,192156.00,A,5320.66820,N,00615.27459,W,0.206,,070725,,,A,V*0C
$GNVTG,,T,,M,0.206,N,0.381,K,A*33
$GNGGA,192156.00,5320.66820,N,00615.27459,W,1,12,0.71,3.6,M,52.9,M,,*57
$GNGSA,A,3,13,15,30,24,14,05,18,07,,,,,1.19,0.71,0.95,1*0F
$GNGSA,A,3,70,85,68,78,79,80,69,,,,,,1.19,0.71,0.95,2*03
$GNGSA,A,3,06,09,11,04,36,,,,,,,,1.19,0.71,0.95,3*0E
$GNGSA,A,3,24,26,33,14,21,,,,,,,,1.19,0.71,0.95,4*03
$GPGSV,4,1,14,05,55,198,42,07,14,059,24,08,07,029,,13,84,308,31,1*6C
$GPGSV,4,2,14,14,43,115,25,15,48,287,42,18,23,296,44,20,28,179,,1*66
$GPGSV,4,3,14,21,28,165,,22,35,134,,23,15,319,,24,10,238,38,1*66
$GPGSV,4,4,14,27,02,357,,30,45,066,31,1*67
$GLGSV,3,1,09,68,22,117,32,69,72,092,25,70,34,309,35,78,36,040,26,1*7B
$GLGSV,3,2,09,79,67,126,28,80,24,187,41,85,13,275,30,86,19,332,22,1*7D
$GLGSV,3,3,09,87,06,013,,1*4A
$GAGSV,3,1,12,04,83,080,25,06,68,282,36,09,42,280,40,10,04,209,,7*78
$GAGSV,3,2,12,11,19,231,32,19,24,096,,21,33,059,,23,38,126,30,7*7A
$GAGSV,3,3,12,27,01,019,,31,09,170,26,34,14,335,,36,31,284,46,7*79
$GBGSV,2,1,07,09,03,054,,10,11,072,,14,80,259,34,21,16,130,26,1*7B
$GBGSV,2,2,07,24,39,190,41,26,64,106,23,33,53,297,42,1*4C
$GNGLL,5320.66820,N,00615.27459,W,192156.00,A,A*6C
$GNRMC,192157.00,A,5320.66822,N,00615.27453,W,0.198,,070725,,,A,V*01
$GNVTG,,T,,M,0.198,N,0.367,K,A*3F
$GNGGA,192157.00,5320.66822,N,00615.27453,W,1,12,0.89,3.5,M,52.9,M,,*5A
$GNGSA,A,3,13,15,30,24,05,18,07,,,,,,1.46,0.89,1.16,1*0D
$GNGSA,A,3,70,85,68,78,79,80,69,,,,,,1.46,0.89,1.16,2*04
$GNGSA,A,3,06,09,11,04,36,,,,,,,,1.46,0.89,1.16,3*09
$GNGSA,A,3,24,26,33,14,21,,,,,,,,1.46,0.89,1.16,4*04
$GPGSV,4,1,14,05,55,198,40,07,14,059,23,08,07,029,,13,84,308,35,1*6D
$GPGSV,4,2,14,14,43,115,,15,48,287,40,18,23,296,44,20,28,179,,1*63
$GPGSV,4,3,14,21,28,165,,22,35,134,,23,15,319,,24,10,238,38,1*66
$GPGSV,4,4,14,27,02,357,,30,45,066,29,1*6E
$GLGSV,3,1,09,68,22,117,32,69,72,092,23,70,34,309,35,78,36,040,25,1*7E
$GLGSV,3,2,09,79,67,126,31,80,24,187,42,85,13,275,31,86,19,332,20,1*75
$GLGSV,3,3,09,87,06,013,,1*4A
$GAGSV,3,1,12,04,83,080,24,06,68,282,37,09,42,280,43,10,04,209,,7*7B
$GAGSV,3,2,12,11,19,231,32,19,24,096,,21,33,059,,23,38,126,30,7*7A
$GAGSV,3,3,12,27,01,019,,31,09,170,25,34,14,335,,36,31,284,47,7*7B
$GBGSV,2,1,07,09,03,054,,10,11,072,,14,80,259,36,21,16,130,26,1*79
$GBGSV,2,2,07,24,39,190,41,26,64,106,22,33,54,297,45,1*4D
$GNGLL,5320.66822,N,00615.27453,W,192157.00,A,A*65
$GNRMC,192158.00,A,5320.66821,N,00615.27459,W,0.182,,070725,,,A,V*0C
$GNVTG,,T,,M,0.182,N,0.337,K,A*31
$GNGGA,192158.00,5320.66821,N,00615.27459,W,1,12,0.76,3.5,M,52.9,M,,*5C
$GNGSA,A,3,13,15,30,24,05,18,07,,,,,,1.23,0.76,0.97,1*06
$GNGSA,A,3,70,85,68,78,79,80,69,,,,,,1.23,0.76,0.97,2*0F
$GNGSA,A,3,06,09,11,04,36,,,,,,,,1.23,0.76,0.97,3*02
$GNGSA,A,3,24,26,33,14,21,,,,,,,,1.23,0.76,0.97,4*0F
$GPGSV,4,1,14,05,55,198,40,07,14,059,20,08,07,029,,13,84,308,36,1*6D
$GPGSV,4,2,14,14,43,115,,15,48,287,42,18,23,296,44,20,28,179,,1*61
$GPGSV,4,3,14,21,28,165,31,22,35,134,,23,15,319,,24,10,238,37,1*6B
$GPGSV,4,4,14,27,02,357,,30,45,066,26,1*61
$GLGSV,3,1,09,68,22,117,32,69,72,092,21,70,34,309,35,78,36,040,23,1*7A
$GLGSV,3,2,09,79,67,126,28,80,24,187,43,85,13,275,30,86,19,332,21,1*7C
$GLGSV,3,3,09,87,06,013,,1*4A
$GAGSV,3,1,12,04,83,080,24,06,68,282,37,09,42,280,44,10,04,209,,7*7C
$GAGSV,3,2,12,11,19,231,32,19,24,096,,21,33,059,,23,38,126,30,7*7A
$GAGSV,3,3,12,27,01,019,,31,09,170,25,34,14,335,,36,31,284,48,7*74
$GBGSV,2,1,07,09,03,054,,10,11,072,,14,80,259,37,21,16,130,26,1*78
$GBGSV,2,2,07,24,39,190,41,26,64,106,22,33,54,297,46,1*4E
$GNGLL,5320.66821,N,00615.27459,W,192158.00,A,A*63
$GNRMC,192159.00,A,5320.66818,N,00615.27468,W,0.094,,070725,,,A,V*03
$GNVTG,,T,,M,0.094,N,0.174,K,A*32
$GNGGA,192159.00,5320.66818,N,00615.27468,W,1,12,0.74,3.6,M,52.9,M,,*54
$GNGSA,A,3,13,15,30,24,21,05,18,07,,,,,1.21,0.74,0.96,1*04
$GNGSA,A,3,70,85,68,78,79,80,69,,,,,,1.21,0.74,0.96,2*0E
$GNGSA,A,3,06,09,11,04,36,,,,,,,,1.21,0.74,0.96,3*03
$GNGSA,A,3,24,26,33,14,21,,,,,,,,1.21,0.74,0.96,4*0E
$GPGSV,4,1,14,05,55,198,40,07,14,059,20,08,07,029,,13,84,308,37,1*6C
$GPGSV,4,2,14,14,43,115,,15,48,287,39,18,23,296,44,20,28,179,,1*6D
$GPGSV,4,3,14,21,28,165,27,22,35,134,,23,15,319,,24,10,238,37,1*6C
$GPGSV,4,4,14,27,02,357,,30,45,066,26,1*61
$GLGSV,3,1,09,68,22,117,31,69,72,092,23,70,34,309,35,78,36,040,25,1*7D
$GLGSV,3,2,09,79,67,126,26,80,24,187,43,85,13,275,30,86,19,332,23,1*70
$GLGSV,3,3,09,87,06,013,,1*4A
$GAGSV,3,1,12,04,83,080,27,06,68,282,37,09,42,280,44,10,04,209,,7*7F
$GAGSV,3,2,12,11,19,231,33,19,24,096,,21,33,059,,23,38,126,29,7*73
$GAGSV,3,3,12,27,01,019,,31,09,170,25,34,14,335,,36,31,284,48,7*74
$GBGSV,2,1,07,09,03,054,,10,11,072,,14,80,259,37,21,16,130,25,1*7B
$GBGSV,2,2,07,24,39,190,41,26,64,106,22,33,54,297,46,1*4E
$GNGLL,5320.66818,N,00615.27468,W,192159.00,A,A*6A
$GNRMC,192200.00,A,5320.66810,N,00615.27496,W,0.044,,070725,,,A,V*08
$GNVTG,,T,,M,0.044,N,0.082,K,A*37
$GNGGA,192200.00,5320.66810,N,00615.27496,W,1,12,0.71,3.9,M,52.9,M,,*58
$GNGSA,A,3,13,15,30,24,05,18,07,,,,,,1.19,0.71,0.95,1*0A
$GNGSA,A,3,70,85,68,78,79,80,69,,,,,,1.19,0.71,0.95,2*03
$GNGSA,A,3,06,09,11,04,36,,,,,,,,1.19,0.71,0.95,3*0E
$GNGSA,A,3,24,26,33,14,21,,,,,,,,1.19,0.71,0.95,4*03
$GPGSV,4,1,14,05,55,198,40,07,14,059,22,08,07,029,,13,84,308,37,1*6E
$GPGSV,4,2,14,14,43,115,,15,48,287,39,18,23,296,46,20,28,179,,1*6F
$GPGSV,4,3,14,21,28,165,,22,35,134,,23,15,319,,24,10,238,38,1*66
$GPGSV,4,4,14,27,02,357,,30,45,066,32,1*64
$GLGSV,3,1,09,68,22,117,33,69,72,092,31,70,34,309,35,78,36,040,27,1*7E
$GLGSV,3,2,09,79,67,126,23,80,24,187,43,85,13,275,30,86,19,332,24,1*72
$GLGSV,3,3,09,87,06,013,,1*4A
$GAGSV,3,1,12,04,83,080,28,06,68,282,38,09,42,280,42,10,04,209,,7*79
$GAGSV,3,2,12,11,19,231,33,19,24,096,,21,33,059,,23,38,126,30,7*7B
$GAGSV,3,3,12,27,01,019,,31,09,170,24,34,14,335,,36,31,284,48,7*75
$GBGSV,2,1,07,09,03,054,,10,11,072,,14,80,259,37,21,16,130,25,1*7B
$GBGSV,2,2,07,24,39,190,41,26,64,106,23,33,54,297,43,1*4A
$GNGLL,5320.66810,N,00615.27496,W,192200.00,A,A*6C
$GNRMC,192201.00,A,5320.66810,N,00615.27496,W,0.011,,070725,,,A,V*09
$GNVTG,,T,,M,0.011,N,0.021,K,A*3E
$GNGGA,192201.00,5320.66810,N,00615.27496,W,1,12,0.79,4.0,M,52.9,M,,*5F
$GNGSA,A,3,13,15,30,24,05,18,07,,,,,,1.34,0.79,1.09,1*09
$GNGSA,A,3,70,85,68,78,79,80,69,,,,,,1.34,0.79,1.09,2*00
$GNGSA,A,3,06,09,11,04,36,,,,,,,,1.34,0.79,1.09,3*0D
$GNGSA,A,3,24,26,33,14,21,,,,,,,,1.34,0.79,1.09,4*00
$GNRMC,192208.00,A,5320.66796,N,00615.27537,W,0.170,,070725,,,A,V*0D
$GNVTG,,T,,M,0.170,N,0.315,K,A*3C
$GNGGA,192208.00,5320.66796,N,00615.27537,W,1,12,0.75,4.6,M,52.9,M,,*57
$GNGSA,A,3,13,15,30,24,05,18,07,,,,,,1.22,0.75,0.96,1*05
$GNGSA,A,3,70,85,68,78,79,80,69,,,,,,1.22,0.75,0.96,2*0C
$GNGSA,A,3,06,09,11,04,36,,,,,,,,1.22,0.75,0.96,3*01
$GNGSA,A,3,24,26,33,14,21,,,,,,,,1.22,0.75,0.96,4*0C
$GPGSV,4,1,14,05,55,198,43,07,14,059,24,08,07,029,,13,84,308,40,1*6B
$GPGSV,4,2,14,14,43,115,,15,48,287,48,18,23,296,44,20,28,179,,1*6B
$GPGSV,4,3,14,21,28,165,,22,35,134,25,23,15,319,,24,10,238,40,1*6E
$GPGSV,4,4,14,27,02,357,,30,45,066,28,1*6F
$GLGSV,3,1,09,68,21,117,30,69,71,095,27,70,35,309,36,78,36,040,33,1*7A
$GLGSV,3,2,09,79,67,126,29,80,24,187,44,85,13,275,33,86,19,332,25,1*7D
$GLGSV,3,3,09,87,06,013,,1*4A
$GAGSV,3,1,12,04,83,080,29,06,68,282,44,09,42,280,46,10,04,209,,7*77
$GAGSV,3,2,12,11,19,231,27,19,24,096,,21,33,059,,23,38,126,29,7*76
$GAGSV,3,3,12,27,01,019,,31,09,170,18,34,14,335,,36,31,284,43,7*71
$GBGSV,2,1,07,09,03,054,,10,11,072,,14,80,259,40,21,16,130,26,1*78
$GBGSV,2,2,07,24,39,190,45,26,64,106,27,33,54,297,47,1*4E
$GNGLL,5320.66796,N,00615.27537,W,192208.00,A,A*6F
$GNRMC,192209.00,A,5320.66797,N,00615.27521,W,0.106,,070725,,,A,V*0B
$GNVTG,,T,,M,0.106,N,0.196,K,A*34
$GNGGA,192209.00,5320.66797,N,00615.27521,W,1,12,0.87,4.5,M,52.9,M,,*5E
$GNGSA,A,3,13,15,30,24,05,18,07,,,,,,1.45,0.87,1.16,1*00
$GNGSA,A,3,70,85,68,78,79,80,69,,,,,,1.45,0.87,1.16,2*09
$GNGSA,A,3,06,09,11,04,36,,,,,,,,1.45,0.87,1.16,3*04
$GNGSA,A,3,24,26,33,14,,,,,,,,,1.45,0.87,1.16,4*0A
$GPGSV,4,1,14,05,55,198,48,07,14,059,21,08,07,029,,13,84,308,40,1*65
$GPGSV,4,2,14,14,43,115,,15,48,287,49,18,23,296,45,20,28,179,,1*6B
$GPGSV,4,3,14,21,28,165,,22,35,134,25,23,15,319,,24,10,238,38,1*61
$GPGSV,4,4,14,27,02,357,,30,45,066,27,1*60
$GLGSV,3,1,09,68,21,117,27,69,71,095,28,70,35,309,35,78,36,040,26,1*74
$GLGSV,3,2,09,79,67,126,30,80,24,187,44,85,13,275,26,86,19,332,23,1*77
$GLGSV,3,3,09,87,06,013,,1*4A
$GAGSV,3,1,12,04,83,080,29,06,68,282,44,09,42,280,49,10,04,209,,7*78
$GAGSV,3,2,12,11,19,231,29,19,24,096,,21,33,059,,23,38,126,30,7*70
$GAGSV,3,3,12,27,01,019,,31,09,170,18,34,14,335,,36,31,284,45,7*77
$GBGSV,2,1,07,09,03,054,,10,11,072,,14,80,259,42,21,16,130,,1*7E
$GBGSV,2,2,07,24,39,190,42,26,64,106,25,33,54,297,47,1*4B
$GNGLL,5320.66797,N,00615.27521,W,192209.00,A,A*68
$GNRMC,192210.00,A,5320.66805,N,00615.27519,W,0.519,,070725,,,A,V*06
$GNVTG,,T,,M,0.519,N,0.962,K,A*3D
$GNGGA,192210.00,5320.66805,N,00615.27519,W,1,12,0.87,4.7,M,52.9,M,,*5B
$GNGSA,A,3,13,15,30,24,05,18,07,,,,,,1.45,0.87,1.16,1*00
$GNGSA,A,3,70,85,68,78,79,80,69,,,,,,1.45,0.87,1.16,2*09
$GNGSA,A,3,06,09,11,04,36,,,,,,,,1.45,0.87,1.16,3*04
$GNGSA,A,3,24,26,33,14,,,,,,,,,1.45,0.87,1.16,4*0A
$GPGSV,4,1,14,05,55,198,43,07,14,059,22,08,07,029,,13,84,308,41,1*6C
$GPGSV,4,2,14,14,43,115,,15,48,287,48,18,23,296,46,20,28,179,,1*69
$GPGSV,4,3,14,21,28,165,,22,35,134,26,23,15,319,,24,10,238,35,1*6F
$GPGSV,4,4,14,27,02,357,,30,45,066,26,1*61
$GLGSV,3,1,09,68,21,117,30,69,71,095,28,70,35,309,37,78,36,040,29,1*7F
$GLGSV,3,2,09,79,67,126,29,80,24,187,47,85,13,275,33,86,19,332,24,1*7F
$GLGSV,3,3,09,87,06,013,,1*4A
$GAGSV,3,1,12,04,83,080,33,06,68,282,45,09,42,280,47,10,04,209,,7*7C
$GAGSV,3,2,12,11,19,231,37,19,24,096,,21,33,059,,23,38,126,28,7*76
$GAGSV,3,3,12,27,01,019,,31,09,170,21,34,14,335,,36,31,284,43,7*7B
$GBGSV,2,1,07,09,03,054,,10,11,072,,14,80,259,40,21,16,130,22,1*7C
$GBGSV,2,2,07,24,39,190,41,26,64,106,24,33,54,297,47,1*49
$GNGLL,5320.66805,N,00615.27519,W,192210.00,A,A*6F
$GNRMC,192211.00,A,5320.66815,N,00615.27558,W,1.390,329.60,070725,,,A,V*15
$GNVTG,329.60,T,,M,1.390,N,2.575,K,A*23
$GNGGA,192211.00,5320.66815,N,00615.27558,W,1,12,0.87,4.5,M,52.9,M,,*5C
$GNGSA,A,3,13,15,30,24,05,18,07,,,,,,1.45,0.87,1.16,1*00
$GNGSA,A,3,70,85,68,78,79,80,69,,,,,,1.45,0.87,1.16,2*09
$GNGSA,A,3,06,09,11,04,36,,,,,,,,1.45,0.87,1.16,3*04
$GNGSA,A,3,24,26,33,14,,,,,,,,,1.45,0.87,1.16,4*0A
$GPGSV,4,1,14,05,55,198,34,07,14,059,21,08,07,029,,13,84,308,40,1*6E
$GPGSV,4,2,14,14,43,115,,15,48,287,49,18,23,296,42,20,28,179,,1*6C
$GPGSV,4,3,14,21,28,165,,22,35,134,25,23,15,319,,24,10,238,31,1*68
$GPGSV,4,4,14,27,02,357,,30,45,066,33,1*65
$GLGSV,3,1,09,68,21,117,21,69,71,095,27,70,35,309,36,78,35,040,28,1*73
$GLGSV,3,2,09,79,67,126,35,80,24,187,41,85,13,275,26,86,19,332,25,1*71
$GLGSV,3,3,09,87,06,013,,1*4A
$GAGSV,3,1,12,04,83,080,37,06,68,282,43,09,42,280,47,10,04,209,,7*7E
$GAGSV,3,2,12,11,19,231,30,19,24,096,,21,33,059,,23,38,126,28,7*71
$GAGSV,3,3,12,27,01,019,,31,09,170,23,34,14,335,,36,31,284,44,7*7E
$GBGSV,2,1,07,09,03,054,,10,11,072,,14,80,259,39,21,16,130,22,1*72
$GBGSV,2,2,07,24,39,190,30,26,64,106,25,33,54,297,45,1*4C
$GNGLL,5320.66815,N,00615.27558,W,192211.00,A,A*6A
$GNRMC,192212.00,A,5320.66822,N,00615.27598,W,1.057,304.84,070725,,,A,V*13
$GNVTG,304.84,T,,M,1.057,N,1.958,K,A*2E
$GNGGA,192212.00,5320.66822,N,00615.27598,W,1,12,0.87,4.3,M,52.9,M,,*51
$GNGSA,A,3,13,15,30,24,05,18,07,,,,,,1.45,0.87,1.16,1*00
$GNGSA,A,3,70,85,68,78,79,80,69,,,,,,1.45,0.87,1.16,2*09
$GNGSA,A,3,06,09,11,04,36,,,,,,,,1.45,0.87,1.16,3*04
$GNGSA,A,3,24,26,33,14,,,,,,,,,1.45,0.87,1.16,4*0A
$GPGSV,4,1,14,05,55,198,35,07,14,059,24,08,07,029,,13,84,308,38,1*65
$GPGSV,4,2,14,14,43,115,,15,48,287,48,18,23,296,40,20,28,179,,1*6F
$GPGSV,4,3,14,21,28,165,,22,35,134,27,23,15,319,,24,10,238,36,1*6D
$GPGSV,4,4,14,27,02,357,,30,45,066,24,1*63
$GLGSV,3,1,09,68,21,117,22,69,71,095,26,70,35,309,36,78,35,040,26,1*7F
$GLGSV,3,2,09,79,67,124,30,80,24,187,31,85,13,275,34,86,19,332,26,1*71
$GLGSV,3,3,09,87,06,013,,1*4A
$GAGSV,3,1,12,04,83,080,34,06,68,282,45,09,42,280,44,10,04,209,,7*78
$GAGSV,3,2,12,11,19,231,30,19,24,096,,21,33,059,,23,38,126,27,7*7E
$GAGSV,3,3,12,27,01,019,,31,09,170,22,34,14,335,,36,31,284,42,7*79
$GBGSV,2,1,07,09,03,054,,10,11,072,,14,80,259,38,21,16,130,23,1*72
$GBGSV,2,2,07,24,39,190,36,26,64,106,25,33,54,297,43,1*4C
$GNGLL,5320.66822,N,00615.27598,W,192212.00,A,A*61
$GNRMC,192213.00,A,5320.66839,N,00615.27667,W,1.584,293.95,070725,,,A,V*1F
$GNVTG,293.95,T,,M,1.584,N,2.933,K,A*24
$GNGGA,192213.00,5320.66839,N,00615.27667,W,1,12,0.78,4.3,M,52.9,M,,*59
$GNGSA,A,3,13,15,30,24,05,18,07,,,,,,1.33,0.78,1.08,1*0E
$GNGSA,A,3,70,85,68,78,79,80,69,,,,,,1.33,0.78,1.08,2*07
$GNGSA,A,3,06,09,11,04,36,,,,,,,,1.33,0.78,1.08,3*0A
$GNGSA,A,3,24,26,33,14,21,,,,,,,,1.33,0.78,1.08,4*07
$GPGSV,4,1,14,05,55,198,42,07,14,059,19,08,07,029,,13,84,308,40,1*64
$GPGSV,4,2,14,14,43,115,,15,48,287,47,18,23,296,39,20,28,179,,1*6E
$GPGSV,4,3,14,21,28,165,,22,35,134,33,23,15,319,,24,10,238,33,1*6D
$GPGSV,4,4,14,27,02,357,,30,45,066,29,1*6E
$GLGSV,3,1,09,68,21,117,26,69,71,095,31,70,35,309,38,78,35,040,29,1*7C
$GLGSV,3,2,09,79,67,124,26,80,25,187,33,85,13,275,29,86,19,332,22,1*7D
$GLGSV,3,3,09,87,06,013,,1*4A
$GAGSV,3,1,12,04,83,080,38,06,68,282,44,09,42,280,45,10,04,209,,7*74
$GAGSV,3,2,12,11,19,231,33,19,24,096,,21,33,059,,23,38,126,29,7*73
$GAGSV,3,3,12,27,01,019,,31,09,170,27,34,14,335,,36,31,284,40,7*7E
$GBGSV,2,1,07,09,03,054,,10,11,072,,14,80,259,39,21,16,130,20,1*70
$GBGSV,2,2,07,24,39,190,41,26,64,106,30,33,54,297,48,1*43
$GNGLL,5320.66839,N,00615.27667,W,192213.00,A,A*69
$GNRMC,192214.00,A,5320.66849,N,00615.27723,W,1.799,272.24,070725,,,A,V*15
$GNVTG,272.24,T,,M,1.799,N,3.333,K,A*24
$GNGGA,192214.00,5320.66849,N,00615.27723,W,1,12,0.80,3.9,M,52.9,M,,*52
$GNGSA,A,3,13,15,30,24,05,18,07,,,,,,1.37,0.80,1.11,1*05
$GNGSA,A,3,70,85,68,78,79,80,69,,,,,,1.37,0.80,1.11,2*0C
$GNGSA,A,3,06,09,11,04,36,,,,,,,,1.37,0.80,1.11,3*01
$GNGSA,A,3,24,26,33,14,21,,,,,,,,1.37,0.80,1.11,4*0C
$GPGSV,4,1,14,05,54,197,39,07,14,059,30,08,07,029,,13,84,308,40,1*6D
$GPGSV,4,2,14,14,43,115,,15,48,287,49,18,23,296,43,20,28,179,,1*6D
$GPGSV,4,3,14,21,28,165,,22,35,134,33,23,15,319,,24,10,238,36,1*68
$GPGSV,4,4,14,27,02,357,,30,45,066,29,1*6E
$GLGSV,3,1,09,68,21,117,22,69,71,095,38,70,35,309,36,78,35,040,21,1*77
$GLGSV,3,2,09,79,67,124,35,80,25,187,44,85,13,275,32,86,19,332,21,1*76
$GNRMC,192221.00,A,5320.66812,N,00615.27724,W,1.477,176.79,070725,,,A,V*16
$GNVTG,176.79,T,,M,1.477,N,2.735,K,A*2B
$GNGGA,192221.00,5320.66812,N,00615.27724,W,1,12,0.80,1.2,M,52.9,M,,*54
$GNGSA,A,3,13,15,30,24,05,18,07,,,,,,1.36,0.80,1.10,1*05
$GNGSA,A,3,70,85,68,78,79,80,69,,,,,,1.36,0.80,1.10,2*0C
$GNGSA,A,3,06,09,11,04,36,,,,,,,,1.36,0.80,1.10,3*01
$GNGSA,A,3,24,26,33,14,,,,,,,,,1.36,0.80,1.10,4*0F
$GPGSV,4,1,15,05,54,197,32,07,14,059,24,08,07,029,,13,84,308,30,1*65
$GPGSV,4,2,15,14,43,115,,15,48,287,38,18,23,296,32,20,28,179,,1*6C
$GPGSV,4,3,15,21,28,165,,22,35,134,25,23,15,319,,24,10,238,30,1*68
$GPGSV,4,4,15,27,02,357,,30,45,066,20,49,28,166,38,1*5B
$GLGSV,3,1,09,68,21,117,27,69,71,095,33,70,35,309,20,78,35,040,24,1*7B
$GLGSV,3,2,09,79,67,124,38,80,25,187,43,85,13,274,22,86,19,332,27,1*7A
$GLGSV,3,3,09,87,07,013,,1*4B
$GAGSV,3,1,12,04,83,080,35,06,68,282,30,09,42,280,27,10,04,209,,7*7E
$GAGSV,3,2,12,11,19,231,35,19,24,096,,21,33,059,,23,38,126,26,7*7A
$GAGSV,3,3,12,27,01,019,,31,09,170,31,34,14,335,,36,31,284,31,7*7F
$GBGSV,2,1,07,09,03,054,,10,11,072,16,14,80,259,30,21,16,130,,1*7C
$GBGSV,2,2,07,24,39,190,45,26,64,106,34,33,54,297,30,1*4C
$GNGLL,5320.66812,N,00615.27724,W,192221.00,A,A*67
$GNRMC,192222.00,A,5320.66778,N,00615.27669,W,1.706,171.61,070725,,,A,V*15
$GNVTG,171.61,T,,M,1.706,N,3.159,K,A*2D
$GNGGA,192222.00,5320.66778,N,00615.27669,W,1,12,0.78,0.8,M,52.9,M,,*50
$GNGSA,A,3,13,15,30,24,05,18,07,,,,,,1.33,0.78,1.08,1*0E
$GNGSA,A,3,70,85,68,78,79,80,69,,,,,,1.33,0.78,1.08,2*07
$GNGSA,A,3,06,09,11,04,36,,,,,,,,1.33,0.78,1.08,3*0A
$GNGSA,A,3,24,26,33,14,,,,,,,,,1.33,0.78,1.08,4*04
$GPGSV,4,1,15,05,54,197,40,07,14,059,22,08,07,029,,13,84,308,33,1*65
$GPGSV,4,2,15,14,43,115,,15,48,287,35,18,23,296,35,20,28,179,,1*66
$GPGSV,4,3,15,21,28,165,,22,35,134,25,23,15,319,,24,10,238,29,1*60
$GPGSV,4,4,15,27,02,357,,30,45,066,30,49,28,166,43,1*56
$GLGSV,3,1,09,68,21,117,25,69,71,095,36,70,35,309,22,78,35,040,26,1*7C
$GLGSV,3,2,09,79,67,124,41,80,25,187,48,85,13,274,22,86,19,332,26,1*7E
$GLGSV,3,3,09,87,07,013,,1*4B
$GAGSV,3,1,12,04,83,080,29,06,68,282,29,09,42,280,32,10,04,209,,7*7F
$GAGSV,3,2,12,11,19,231,32,19,24,096,,21,33,059,,23,38,126,26,7*7D
$GAGSV,3,3,12,27,01,019,,31,09,170,31,34,14,335,,36,31,284,27,7*78
$GBGSV,2,1,07,09,03,054,,10,11,072,15,14,80,259,30,21,16,130,,1*7F
$GBGSV,2,2,07,24,39,190,44,26,64,106,35,33,54,297,30,1*4C
$GNGLL,5320.66778,N,00615.27669,W,192222.00,A,A*6F
$GNRMC,192223.00,A,5320.66732,N,00615.27642,W,1.602,171.41,070725,,,A,V*14
$GNVTG,171.41,T,,M,1.602,N,2.967,K,A*2E
$GNGGA,192223.00,5320.66732,N,00615.27642,W,1,12,0.79,0.7,M,52.9,M,,*58
$GNGSA,A,3,13,15,30,24,05,18,07,,,,,,1.34,0.79,1.08,1*08
$GNGSA,A,3,70,85,68,78,79,80,69,,,,,,1.34,0.79,1.08,2*01
$GNGSA,A,3,06,09,11,04,36,,,,,,,,1.34,0.79,1.08,3*0C
$GNGSA,A,3,24,26,33,14,,,,,,,,,1.34,0.79,1.08,4*02
$GPGSV,4,1,15,05,54,197,45,07,14,059,20,08,07,029,,13,84,308,39,1*68
$GPGSV,4,2,15,14,43,115,,15,48,287,31,18,23,296,31,20,28,179,,1*66
$GPGSV,4,3,15,21,28,165,,22,35,134,26,23,15,319,,24,10,238,29,1*63
$GPGSV,4,4,15,27,02,357,,30,45,066,29,49,28,166,41,1*5C
$GLGSV,3,1,09,68,21,117,23,69,71,095,38,70,35,309,22,78,35,040,25,1*77
$GLGSV,3,2,09,79,67,124,43,80,25,187,45,85,13,274,25,86,19,332,32,1*73
$GLGSV,3,3,09,87,07,013,,1*4B
$GAGSV,3,1,12,04,83,080,34,06,68,282,33,09,42,280,29,10,04,209,,7*72
$GAGSV,3,2,12,11,19,231,30,19,24,096,,21,33,059,,23,38,126,26,7*7F
$GAGSV,3,3,12,27,01,019,,31,09,170,31,34,14,335,,36,31,284,31,7*7F
$GBGSV,2,1,07,09,03,054,,10,11,072,11,14,80,259,28,21,16,130,,1*72
$GBGSV,2,2,07,24,39,190,42,26,64,106,25,33,54,297,29,1*43
$GNGLL,5320.66732,N,00615.27642,W,192223.00,A,A*69
$GNRMC,192224.00,A,5320.66697,N,00615.27628,W,1.225,174.42,070725,,,A,V*16
$GNVTG,174.42,T,,M,1.225,N,2.268,K,A*2D
$GNGGA,192224.00,5320.66697,N,00615.27628,W,1,12,0.78,0.3,M,52.9,M,,*58
$GNGSA,A,3,13,15,30,24,05,18,07,,,,,,1.33,0.78,1.08,1*0E
$GNGSA,A,3,70,85,68,78,79,80,69,,,,,,1.33,0.78,1.08,2*07
$GNGSA,A,3,06,09,11,04,36,,,,,,,,1.33,0.78,1.08,3*0A
$GNGSA,A,3,24,26,33,14,,,,,,,,,1.33,0.78,1.08,4*04
$GPGSV,4,1,15,05,54,197,42,07,14,059,23,08,07,029,,13,84,308,35,1*60
$GPGSV,4,2,15,14,43,115,,15,48,287,33,18,23,296,32,20,28,179,,1*67
$GPGSV,4,3,15,21,28,165,,22,35,134,29,23,15,319,,24,10,238,27,1*62
$GPGSV,4,4,15,27,02,357,,30,45,066,25,49,28,166,37,1*51
$GLGSV,3,1,09,68,21,117,24,69,71,095,37,70,35,309,25,78,35,040,25,1*78
$GLGSV,3,2,09,79,67,124,37,80,25,187,43,85,13,274,26,86,19,332,20,1*76
$GLGSV,3,3,09,87,07,013,,1*4B
$GAGSV,3,1,12,04,83,080,34,06,68,282,30,09,42,280,33,10,04,209,,7*7A
$GAGSV,3,2,12,11,19,231,29,19,24,096,,21,33,059,,23,38,126,24,7*75
$GAGSV,3,3,12,27,01,019,,31,09,170,32,34,14,335,,36,31,284,26,7*7A
$GBGSV,2,1,07,09,03,054,,10,11,072,,14,80,259,28,21,16,130,,1*72
$GBGSV,2,2,07,24,39,190,36,26,64,106,30,33,54,297,29,1*44
$GNGLL,5320.66697,N,00615.27628,W,192224.00,A,A*6C
$GNRMC,192225.00,A,5320.66653,N,00615.27558,W,1.943,161.86,070725,,,A,V*1C
$GNVTG,161.86,T,,M,1.943,N,3.599,K,A*22
$GNGGA,192225.00,5320.66653,N,00615.27558,W,1,12,0.90,-0.1,M,52.9,M,,*7C
$GNGSA,A,3,13,15,30,24,05,18,,,,,,,1.48,0.90,1.18,1*02
$GNGSA,A,3,70,85,68,78,79,80,69,,,,,,1.48,0.90,1.18,2*0C
$GNGSA,A,3,06,09,11,04,36,,,,,,,,1.48,0.90,1.18,3*01
$GNGSA,A,3,24,26,33,14,,,,,,,,,1.48,0.90,1.18,4*0F
$GPGSV,4,1,15,05,54,197,45,07,14,059,,08,07,029,,13,84,308,32,1*61
$GPGSV,4,2,15,14,43,115,,15,48,287,35,18,23,296,31,20,28,179,,1*62
$GPGSV,4,3,15,21,28,165,,22,35,134,26,23,15,319,,24,10,238,29,1*63
$GPGSV,4,4,15,27,02,357,,30,45,066,22,49,28,166,37,1*56
$GLGSV,3,1,09,68,21,117,20,69,71,095,44,70,35,309,20,78,35,040,21,1*79
$GLGSV,3,2,09,79,67,124,41,80,25,187,46,85,13,274,22,86,19,332,30,1*77
$GLGSV,3,3,09,87,07,013,,1*4B
$GAGSV,3,1,12,04,83,080,32,06,68,282,34,09,42,280,32,10,04,209,,7*79
$GAGSV,3,2,12,11,19,231,28,19,24,096,,21,33,059,,23,38,126,20,7*70
$GAGSV,3,3,12,27,01,019,,31,09,170,32,34,14,335,,36,31,284,30,7*7D
$GBGSV,2,1,07,09,03,054,,10,11,072,,14,80,259,33,21,16,130,,1*78
$GBGSV,2,2,07,24,39,190,35,26,64,106,34,33,54,297,34,1*4F
$GNGLL,5320.66653,N,00615.27558,W,192225.00,A,A*61
$GNRMC,192226.00,A,5320.66640,N,00615.27486,W,0.884,161.51,070725,,,A,V*1E
$GNVTG,161.51,T,,M,0.884,N,1.637,K,A*26
$GNGGA,192226.00,5320.66640,N,00615.27486,W,1,12,1.32,-0.9,M,52.9,M,,*7E
$GNGSA,A,3,13,15,30,24,20,05,18,,,,,,2.13,1.32,1.66,1*0D
$GNGSA,A,3,70,85,68,78,79,80,69,,,,,,2.13,1.32,1.66,2*01
$GNGSA,A,3,06,09,11,04,36,,,,,,,,2.13,1.32,1.66,3*0C
$GNGSA,A,3,24,26,33,14,,,,,,,,,2.13,1.32,1.66,4*02
$GPGSV,4,1,15,05,54,197,43,07,14,059,,08,07,029,,13,84,308,33,1*66
$GPGSV,4,2,15,14,43,115,,15,48,287,29,18,23,296,24,20,28,179,41,1*6E
$GPGSV,4,3,15,21,28,165,,22,35,134,25,23,15,319,,24,10,238,21,1*68
$GPGSV,4,4,15,27,02,357,,30,45,066,22,49,28,166,37,1*56
$GLGSV,3,1,09,68,21,117,20,69,71,095,42,70,35,309,20,78,35,040,20,1*7E
$GLGSV,3,2,09,79,67,124,43,80,25,187,48,85,13,274,23,86,19,332,28,1*73
$GLGSV,3,3,09,87,07,013,,1*4B
$GAGSV,3,1,12,04,83,080,31,06,68,282,31,09,42,280,36,10,04,209,,7*7B
$GAGSV,3,2,12,11,19,231,28,19,24,096,,21,33,059,,23,38,126,22,7*72
$GAGSV,3,3,12,27,01,019,,31,09,170,28,34,14,335,,36,31,284,29,7*7E
$GBGSV,2,1,07,09,03,054,,10,11,072,,14,80,259,29,21,16,130,,1*73
$GBGSV,2,2,07,24,39,190,37,26,64,106,41,33,54,297,31,1*4A
$GNGLL,5320.66640,N,00615.27486,W,192226.00,A,A*62
$GNRMC,192227.00,A,5320.66660,N,00615.27430,W,0.848,83.11,070725,,,A,V*29
$GNVTG,83.11,T,,M,0.848,N,1.571,K,A*1E
$GNGGA,192227.00,5320.66660,N,00615.27430,W,1,12,1.36,-1.5,M,52.9,M,,*79
$GNGSA,A,3,13,15,30,24,20,05,18,,,,,,2.19,1.36,1.72,1*06
$GNGSA,A,3,70,85,68,78,79,80,69,,,,,,2.19,1.36,1.72,2*0A
$GNGSA,A,3,06,09,11,04,36,,,,,,,,2.19,1.36,1.72,3*07
$GNGSA,A,3,24,26,33,14,,,,,,,,,2.19,1.36,1.72,4*09
$GNRMC,192234.00,A,5320.66911,N,00615.27285,W,1.396,32.06,070725,,,A,V*2F
$GNVTG,32.06,T,,M,1.396,N,2.584,K,A*12
$GNGGA,192234.00,5320.66911,N,00615.27285,W,1,12,1.66,-4.4,M,52.9,M,,*7B
$GNGSA,A,3,13,15,30,24,20,05,18,,,,,,2.62,1.66,2.02,1*0B
$GNGSA,A,3,70,85,68,78,79,80,69,,,,,,2.62,1.66,2.02,2*07
$GNGSA,A,3,06,09,11,04,36,,,,,,,,2.62,1.66,2.02,3*0A
$GNGSA,A,3,24,26,33,14,,,,,,,,,2.62,1.66,2.02,4*04
$GPGSV,4,1,14,05,54,197,32,07,14,059,,08,07,028,,13,84,308,35,1*66
$GPGSV,4,2,14,14,43,115,,15,48,287,41,18,23,296,40,20,28,179,27,1*63
$GPGSV,4,3,14,21,28,165,,22,35,134,23,23,15,319,,24,10,238,29,1*67
$GPGSV,4,4,14,27,02,357,,30,45,066,21,1*66
$GLGSV,3,1,09,68,21,117,19,69,71,095,23,70,35,309,30,78,35,040,22,1*70
$GLGSV,3,2,09,79,67,124,29,80,25,187,34,85,13,274,25,86,19,332,24,1*7E
$GLGSV,3,3,09,87,07,013,,1*4B
$GAGSV,3,1,12,04,83,080,26,06,68,282,32,09,42,280,39,10,04,209,,7*71
$GAGSV,3,2,12,11,19,231,36,19,24,096,,21,33,059,18,23,38,126,21,7*77
$GAGSV,3,3,12,27,01,019,,31,09,170,21,34,14,335,,36,31,284,25,7*7B
$GBGSV,2,1,07,09,03,054,,10,11,072,,14,80,259,26,21,16,130,,1*7C
$GBGSV,2,2,07,24,39,190,25,26,64,106,20,33,54,297,39,1*46
$GNGLL,5320.66911,N,00615.27285,W,192234.00,A,A*6F
$GNRMC,192235.00,A,5320.66946,N,00615.27254,W,1.353,25.83,070725,,,A,V*22
$GNVTG,25.83,T,,M,1.353,N,2.505,K,A*19
$GNGGA,192235.00,5320.66946,N,00615.27254,W,1,12,1.57,-4.7,M,52.9,M,,*75
$GNGSA,A,3,13,15,30,24,20,05,18,,,,,,2.43,1.57,1.85,1*06
$GNGSA,A,3,70,85,68,78,79,80,69,,,,,,2.43,1.57,1.85,2*0A
$GNGSA,A,3,06,09,11,04,36,,,,,,,,2.43,1.57,1.85,3*07
$GNGSA,A,3,24,26,33,14,,,,,,,,,2.43,1.57,1.85,4*09
$GPGSV,4,1,14,05,54,197,31,07,14,059,,08,07,028,,13,85,313,38,1*63
$GPGSV,4,2,14,14,43,115,,15,48,287,34,18,23,296,38,20,28,179,32,1*6A
$GPGSV,4,3,14,21,28,165,,22,35,134,30,23,15,319,,24,10,238,30,1*6D
$GPGSV,4,4,14,27,02,357,,30,45,066,22,1*65
$GLGSV,3,1,09,68,21,117,20,69,71,095,24,70,35,309,30,78,35,040,21,1*7E
$GLGSV,3,2,09,79,67,124,27,80,25,187,31,85,13,274,24,86,19,332,24,1*74
$GLGSV,3,3,09,87,07,013,,1*4B
$GAGSV,3,1,12,04,83,080,26,06,68,282,34,09,42,280,32,10,04,209,,7*7C
$GAGSV,3,2,12,11,19,231,32,19,24,096,,21,33,059,21,23,38,126,23,7*7B
$GAGSV,3,3,12,27,01,019,,31,09,170,21,34,14,335,,36,31,284,26,7*78
$GBGSV,2,1,07,09,03,054,,10,11,072,,14,80,259,31,21,16,130,,1*7A
$GBGSV,2,2,07,24,39,190,25,26,64,106,21,33,54,297,33,1*4D
$GNGLL,5320.66946,N,00615.27254,W,192235.00,A,A*60
$GNRMC,192236.00,A,5320.66995,N,00615.27202,W,1.266,25.56,070725,,,A,V*23
$GNVTG,25.56,T,,M,1.266,N,2.345,K,A*14
$GNGGA,192236.00,5320.66995,N,00615.27202,W,1,12,1.53,-5.0,M,52.9,M,,*79
$GNGSA,A,3,13,15,30,24,20,05,18,,,,,,2.40,1.53,1.85,1*01
$GNGSA,A,3,70,85,68,78,79,80,69,,,,,,2.40,1.53,1.85,2*0D
$GNGSA,A,3,06,09,11,04,36,,,,,,,,2.40,1.53,1.85,3*00
$GNGSA,A,3,24,26,33,14,,,,,,,,,2.40,1.53,1.85,4*0E
$GPGSV,4,1,14,05,54,197,31,07,14,059,,08,07,028,,13,85,313,32,1*69
$GPGSV,4,2,14,14,43,114,,15,48,287,36,18,23,296,31,20,28,179,26,1*65
$GPGSV,4,3,14,21,28,165,,22,35,134,23,23,15,319,,24,10,238,34,1*6B
$GPGSV,4,4,14,27,02,357,,30,45,066,24,1*63
$GLGSV,3,1,09,68,21,117,20,69,71,095,24,70,35,309,25,78,35,040,21,1*7A
$GLGSV,3,2,09,79,67,124,26,80,25,187,34,85,13,274,25,86,19,332,22,1*77
$GLGSV,3,3,09,87,07,013,,1*4B
$GAGSV,3,1,12,04,83,080,26,06,68,282,31,09,42,280,32,10,04,209,,7*79
$GAGSV,3,2,12,11,19,231,33,19,24,096,,21,33,059,20,23,38,126,21,7*79
$GAGSV,3,3,12,27,01,019,,31,09,170,20,34,14,335,,36,31,284,25,7*7A
$GBGSV,2,1,07,09,03,054,,10,11,072,,14,80,259,30,21,16,130,20,1*79
$GBGSV,2,2,07,24,39,190,29,26,64,106,21,33,54,297,28,1*4B
$GNGLL,5320.66995,N,00615.27202,W,192236.00,A,A*6E
$GNRMC,192237.00,A,5320.67030,N,00615.27164,W,1.017,,070725,,,A,V*08
$GNVTG,,T,,M,1.017,N,1.884,K,A*3F
$GNGGA,192237.00,5320.67030,N,00615.27164,W,1,12,1.62,-5.6,M,52.9,M,,*78
$GNGSA,A,3,13,15,30,24,20,05,18,,,,,,2.61,1.62,2.05,1*0B
$GNGSA,A,3,70,85,68,78,79,80,69,,,,,,2.61,1.62,2.05,2*07
$GNGSA,A,3,06,09,11,04,36,,,,,,,,2.61,1.62,2.05,3*0A
$GNGSA,A,3,24,26,33,14,,,,,,,,,2.61,1.62,2.05,4*04
$GPGSV,4,1,14,05,54,197,31,07,14,059,,08,07,028,,13,85,313,32,1*69
$GPGSV,4,2,14,14,43,114,,15,49,287,38,18,23,296,45,20,28,179,26,1*69
$GPGSV,4,3,14,21,28,165,,22,35,134,25,23,15,319,,24,10,238,31,1*68
$GPGSV,4,4,14,27,02,357,,30,45,066,25,1*62
$GLGSV,3,1,09,68,21,117,21,69,71,095,24,70,35,309,31,78,35,040,19,1*75
$GLGSV,3,2,09,79,67,124,27,80,25,187,30,85,13,274,28,86,19,332,20,1*7D
$GLGSV,3,3,09,87,07,013,,1*4B
$GAGSV,3,1,12,04,83,080,26,06,68,282,39,09,42,280,27,10,04,209,,7*75
$GAGSV,3,2,12,11,19,231,27,19,24,096,,21,33,059,20,23,38,126,22,7*7F
$GAGSV,3,3,12,27,01,019,,31,09,170,21,34,14,335,,36,31,284,32,7*7D
$GBGSV,2,1,07,09,03,054,,10,11,072,,14,80,259,29,21,16,130,20,1*71
$GBGSV,2,2,07,24,39,190,22,26,64,106,22,33,54,297,38,1*42
$GNGLL,5320.67030,N,00615.27164,W,192237.00,A,A*6B
$GNRMC,192238.00,A,5320.67036,N,00615.27170,W,0.467,,070725,,,A,V*06
$GNVTG,,T,,M,0.467,N,0.864,K,A*32
$GNGGA,192238.00,5320.67036,N,00615.27170,W,1,12,1.56,-5.7,M,52.9,M,,*72
$GNGSA,A,3,13,15,30,24,20,05,18,,,,,,2.42,1.56,1.85,1*06
$GNGSA,A,3,70,85,68,78,79,80,69,,,,,,2.42,1.56,1.85,2*0A
$GNGSA,A,3,06,09,11,04,36,,,,,,,,2.42,1.56,1.85,3*07
$GNGSA,A,3,24,26,33,14,21,,,,,,,,2.42,1.56,1.85,4*0A
$GPGSV,4,1,14,05,54,197,31,07,14,059,,08,07,028,,13,85,313,32,1*69
$GPGSV,4,2,14,14,43,114,,15,49,287,41,18,23,296,43,20,28,179,26,1*61
$GPGSV,4,3,14,21,28,165,,22,35,134,26,23,15,319,,24,10,238,26,1*6D
$GPGSV,4,4,14,27,02,357,,30,45,066,24,1*63
$GLGSV,3,1,09,68,21,117,21,69,71,095,26,70,35,309,31,78,35,040,22,1*7F
$GLGSV,3,2,09,79,67,124,27,80,25,187,26,85,13,274,22,86,19,332,19,1*7A
$GLGSV,3,3,09,87,07,013,,1*4B
$GAGSV,3,1,12,04,83,080,32,06,68,282,34,09,42,280,30,10,04,209,,7*7B
$GAGSV,3,2,12,11,19,231,31,19,24,096,,21,33,059,21,23,38,126,23,7*78
$GAGSV,3,3,12,27,01,019,,31,09,170,20,34,14,335,,36,31,284,35,7*7B
$GBGSV,2,1,07,09,03,054,,10,11,072,,14,80,259,24,21,16,130,21,1*7D
$GBGSV,2,2,07,24,39,190,25,26,64,106,22,33,54,297,33,1*4E
$GNGLL,5320.67036,N,00615.27170,W,192238.00,A,A*67
$GNRMC,192239.00,A,5320.67062,N,00615.27150,W,0.387,,070725,,,A,V*0D
$GNVTG,,T,,M,0.387,N,0.717,K,A*30
$GNGGA,192239.00,5320.67062,N,00615.27150,W,1,12,1.67,-6.6,M,52.9,M,,*70
$GNGSA,A,3,13,15,30,24,20,05,18,,,,,,2.55,1.67,1.93,1*05
$GNGSA,A,3,70,85,68,78,79,80,69,,,,,,2.55,1.67,1.93,2*09
$GNGSA,A,3,06,09,11,04,36,,,,,,,,2.55,1.67,1.93,3*04
$GNGSA,A,3,24,26,33,14,21,,,,,,,,2.55,1.67,1.93,4*09
$GPGSV,4,1,14,05,54,197,35,07,14,059,,08,07,028,,13,85,313,40,1*68
$GPGSV,4,2,14,14,43,114,,15,49,287,40,18,23,296,45,20,28,179,27,1*67
$GPGSV,4,3,14,21,28,165,,22,35,134,26,23,15,319,,24,10,238,34,1*6E
$GPGSV,4,4,14,27,02,357,,30,45,066,22,1*65
$GLGSV,3,1,09,68,21,117,20,69,71,095,25,70,35,309,32,78,35,040,22,1*7E
$GLGSV,3,2,09,79,67,124,25,80,25,187,33,85,13,274,23,86,19,332,19,1*7D
$GLGSV,3,3,09,87,07,013,,1*4B
$GAGSV,3,1,12,04,83,080,34,06,68,282,30,09,42,280,41,10,04,209,,7*7F
$GAGSV,3,2,12,11,19,231,25,19,24,096,,21,33,059,21,23,38,126,22,7*7C
$GAGSV,3,3,12,27,01,019,,31,09,170,20,34,14,335,,36,31,284,36,7*78
$GBGSV,2,1,07,09,03,054,,10,11,072,,14,80,259,31,21,16,130,21,1*79
$GBGSV,2,2,07,24,39,190,35,26,64,106,22,33,54,297,33,1*4F
$GNGLL,5320.67062,N,00615.27150,W,192239.00,A,A*65
$GNRMC,192240.00,A,5320.67072,N,00615.27153,W,0.293,,070725,,,A,V*05
$GNVTG,,T,,M,0.293,N,0.543,K,A*37
$GNGGA,192240.00,5320.67072,N,00615.27153,W,1,12,1.61,-6.5,M,52.9,M,,*79
$GNGSA,A,3,13,15,30,24,20,05,18,,,,,,2.51,1.61,1.93,1*07
$GNGSA,A,3,70,85,68,78,79,80,69,,,,,,2.51,1.61,1.93,2*0B
$GNGSA,A,3,06,09,11,04,36,,,,,,,,2.51,1.61,1.93,3*06
$GNGSA,A,3,24,26,33,14,21,,,,,,,,2.51,1.61,1.93,4*0B
$GPGSV,4,1,14,05,54,197,29,07,14,059,,08,07,028,,13,85,313,41,1*64
$GPGSV,4,2,14,14,43,114,,15,49,287,28,18,23,295,44,20,28,179,27,1*6B
$GPGSV,4,3,14,21,28,165,,22,35,134,25,23,15,319,,24,10,238,35,1*6C
$GPGSV,4,4,14,27,02,357,,30,45,066,23,1*64
$GLGSV,3,1,09,68,21,117,20,69,71,095,31,70,35,309,26,78,35,040,20,1*7C
$GLGSV,3,2,09,79,67,124,25,80,25,187,33,85,13,274,26,86,19,332,19,1*78
$GLGSV,3,3,09,87,07,013,,1*4B
$GNRMC,192247.00,A,5320.67173,N,00615.27048,W,1.367,48.37,070725,,,A,V*24
$GNVTG,48.37,T,,M,1.367,N,2.531,K,A*1D
$GNGGA,192247.00,5320.67173,N,00615.27048,W,1,12,1.69,-7.9,M,52.9,M,,*70
$GNGSA,A,3,13,15,30,24,20,05,18,,,,,,2.59,1.69,1.97,1*03
$GNGSA,A,3,70,85,68,78,79,80,69,,,,,,2.59,1.69,1.97,2*0F
$GNGSA,A,3,06,09,11,04,36,,,,,,,,2.59,1.69,1.97,3*02
$GNGSA,A,3,24,26,33,14,,,,,,,,,2.59,1.69,1.97,4*0C
$GPGSV,4,1,14,05,54,197,36,07,14,059,,08,07,028,,13,85,313,39,1*65
$GPGSV,4,2,14,14,43,114,,15,49,287,41,18,23,295,25,20,27,179,27,1*6C
$GPGSV,4,3,14,21,28,165,,22,35,134,23,23,16,319,,24,11,238,31,1*6C
$GPGSV,4,4,14,27,02,357,,30,45,066,23,1*64
$GLGSV,3,1,09,68,21,117,22,69,71,095,25,70,35,309,15,78,35,040,24,1*7F
$GLGSV,3,2,09,79,67,124,23,80,25,187,31,85,13,274,44,86,19,332,18,1*79
$GLGSV,3,3,09,87,07,013,,1*4B
$GAGSV,3,1,12,04,83,080,32,06,68,282,31,09,42,280,34,10,04,209,,7*7A
$GAGSV,3,2,12,11,19,231,24,19,24,096,,21,33,059,19,23,38,126,21,7*75
$GAGSV,3,3,12,27,01,019,,31,09,170,17,34,14,335,,36,31,284,32,7*78
$GBGSV,2,1,07,09,03,054,,10,11,072,,14,80,259,26,21,16,130,,1*7C
$GBGSV,2,2,07,24,39,190,35,26,64,106,18,33,54,297,39,1*4C
$GNGLL,5320.67173,N,00615.27048,W,192247.00,A,A*65
$GNRMC,192248.00,A,5320.67192,N,00615.27038,W,0.876,,070725,,,A,V*0F
$GNVTG,,T,,M,0.876,N,1.622,K,A*33
$GNGGA,192248.00,5320.67192,N,00615.27038,W,1,12,0.97,-7.8,M,52.9,M,,*76
$GNGSA,A,3,13,15,30,24,20,05,18,,,,,,1.60,0.97,1.28,1*0E
$GNGSA,A,3,70,85,68,78,79,80,69,,,,,,1.60,0.97,1.28,2*02
$GNGSA,A,3,06,09,11,04,36,,,,,,,,1.60,0.97,1.28,3*0F
$GNGSA,A,3,24,26,33,14,,,,,,,,,1.60,0.97,1.28,4*01
$GPGSV,4,1,14,05,54,197,37,07,14,059,,08,07,028,,13,85,313,40,1*6A
$GPGSV,4,2,14,14,43,114,,15,49,287,33,18,23,295,25,20,27,179,31,1*6E
$GPGSV,4,3,14,21,28,165,,22,35,134,24,23,16,319,,24,11,238,23,1*68
$GPGSV,4,4,14,27,02,357,,30,45,066,24,1*63
$GLGSV,3,1,09,68,21,117,22,69,71,095,25,70,35,309,14,78,35,040,23,1*79
$GLGSV,3,2,09,79,67,124,23,80,25,187,30,85,13,274,43,86,19,332,18,1*7F
$GLGSV,3,3,09,87,07,013,,1*4B
$GAGSV,3,1,12,04,83,080,36,06,68,282,35,09,42,280,33,10,04,209,,7*7D
$GAGSV,3,2,12,11,19,231,26,19,24,096,,21,33,059,19,23,38,126,21,7*77
$GAGSV,3,3,12,27,01,019,,31,09,170,17,34,14,335,,36,31,284,28,7*73
$GBGSV,2,1,07,09,03,054,,10,11,072,,14,80,259,26,21,16,130,17,1*7A
$GBGSV,2,2,07,24,39,190,32,26,64,106,19,33,54,297,34,1*47
$GNGLL,5320.67192,N,00615.27038,W,192248.00,A,A*62
$GNRMC,192249.00,A,5320.67196,N,00615.27018,W,0.962,,070725,,,A,V*0C
$GNVTG,,T,,M,0.962,N,1.782,K,A*3C
$GNGGA,192249.00,5320.67196,N,00615.27018,W,1,12,1.62,-7.5,M,52.9,M,,*77
$GNGSA,A,3,13,15,30,24,20,05,18,,,,,,2.46,1.62,1.86,1*06
$GNGSA,A,3,70,85,68,78,79,80,69,,,,,,2.46,1.62,1.86,2*0A
$GNGSA,A,3,06,09,11,04,36,,,,,,,,2.46,1.62,1.86,3*07
$GNGSA,A,3,24,26,33,14,,,,,,,,,2.46,1.62,1.86,4*09
$GPGSV,4,1,14,05,54,197,30,07,14,059,,08,07,028,,13,85,313,37,1*6D
$GPGSV,4,2,14,14,43,114,,15,49,287,38,18,23,295,24,20,27,179,26,1*62
$GPGSV,4,3,14,21,28,165,,22,35,134,24,23,16,319,,24,11,238,30,1*6A
$GPGSV,4,4,14,27,02,356,,30,45,066,25,1*63
$GLGSV,3,1,09,68,21,117,21,69,71,095,25,70,35,309,13,78,35,040,23,1*7D
$GLGSV,3,2,09,79,67,124,24,80,25,187,30,85,13,274,45,86,19,332,18,1*7E
$GLGSV,3,3,09,87,07,013,,1*4B
$GAGSV,3,1,12,04,83,080,36,06,68,282,33,09,42,280,38,10,04,209,,7*70
$GAGSV,3,2,12,11,19,231,26,19,24,096,,21,33,059,19,23,38,126,21,7*77
$GAGSV,3,3,12,27,01,019,,31,09,170,17,34,14,335,,36,31,284,34,7*7E
$GBGSV,2,1,07,09,03,054,,10,11,072,,14,80,259,26,21,16,130,19,1*74
$GBGSV,2,2,07,24,39,190,35,26,64,106,20,33,54,297,28,1*47
$GNGLL,5320.67196,N,00615.27018,W,192249.00,A,A*65
$GNRMC,192250.00,A,5320.67205,N,00615.27024,W,0.994,,070725,,,A,V*0B
$GNVTG,,T,,M,0.994,N,1.841,K,A*35
$GNGGA,192250.00,5320.67205,N,00615.27024,W,1,12,0.93,-7.0,M,52.9,M,,*73
$GNGSA,A,3,13,15,30,24,20,05,18,,,,,,1.56,0.93,1.26,1*01
$GNGSA,A,3,70,85,68,78,79,80,69,,,,,,1.56,0.93,1.26,2*0D
$GNGSA,A,3,06,09,11,04,36,,,,,,,,1.56,0.93,1.26,3*00
$GNGSA,A,3,24,26,33,14,,,,,,,,,1.56,0.93,1.26,4*0E
$GPGSV,4,1,14,05,54,197,34,07,14,059,,08,07,028,,13,85,313,31,1*6F
$GPGSV,4,2,14,14,43,114,,15,49,287,25,18,23,295,23,20,27,179,26,1*69
$GPGSV,4,3,14,21,28,165,,22,35,134,23,23,16,319,,24,11,238,21,1*6D
$GPGSV,4,4,14,27,02,356,,30,45,066,25,1*63
$GLGSV,3,1,09,68,21,117,21,69,71,095,25,70,35,309,11,78,35,040,24,1*78
$GLGSV,3,2,09,79,67,124,25,80,25,187,29,85,13,274,46,86,19,332,19,1*75
$GLGSV,3,3,09,87,07,013,,1*4B
$GAGSV,3,1,12,04,83,080,35,06,68,282,31,09,42,280,43,10,04,209,,7*7D
$GAGSV,3,2,12,11,19,231,24,19,24,096,,21,33,059,17,23,38,126,22,7*78
$GAGSV,3,3,12,27,01,019,,31,09,170,16,34,14,335,,36,31,284,26,7*7C
$GBGSV,2,1,07,09,03,054,,10,11,072,,14,80,259,25,21,16,130,19,1*77
$GBGSV,2,2,07,24,39,190,37,26,64,106,20,33,54,297,21,1*4C
$GNGLL,5320.67205,N,00615.27024,W,192250.00,A,A*6B
$GNRMC,192251.00,A,5320.67232,N,00615.27048,W,1.959,43.02,070725,,,A,V*2F
$GNVTG,43.02,T,,M,1.959,N,3.629,K,A*1C
$GNGGA,192251.00,5320.67232,N,00615.27048,W,1,12,0.81,-6.1,M,52.9,M,,*7F
$GNGSA,A,3,13,15,30,24,20,05,18,,,,,,1.37,0.81,1.10,1*00
$GNGSA,A,3,70,85,68,78,79,80,69,,,,,,1.37,0.81,1.10,2*0C
$GNGSA,A,3,06,09,11,04,36,,,,,,,,1.37,0.81,1.10,3*01
$GNGSA,A,3,24,26,33,14,21,,,,,,,,1.37,0.81,1.10,4*0C
$GPGSV,4,1,14,05,54,197,32,07,14,059,,08,07,028,,13,85,313,35,1*6D
$GPGSV,4,2,14,14,43,114,,15,49,287,26,18,23,295,22,20,27,179,26,1*6B
$GPGSV,4,3,14,21,28,165,,22,35,134,23,23,16,319,,24,11,238,29,1*65
$GPGSV,4,4,14,27,02,356,,30,44,066,34,1*62
$GLGSV,3,1,09,68,21,117,21,69,71,095,25,70,35,309,11,78,35,040,23,1*7F
$GLGSV,3,2,09,79,67,124,25,80,25,187,30,85,13,274,38,86,19,332,19,1*74
$GLGSV,3,3,09,87,07,013,,1*4B
$GAGSV,3,1,12,04,83,080,35,06,68,282,29,09,42,280,30,10,04,209,,7*70
$GAGSV,3,2,12,11,19,231,23,19,24,096,,21,33,059,19,23,38,126,21,7*72
$GAGSV,3,3,12,27,01,019,,31,09,170,16,34,14,335,,36,31,284,26,7*7C
$GBGSV,2,1,07,09,03,054,,10,11,072,,14,80,259,23,21,16,130,18,1*70
$GBGSV,2,2,07,24,39,190,27,26,64,106,19,33,54,297,21,1*47
$GNGLL,5320.67232,N,00615.27048,W,192251.00,A,A*64
$GNRMC,192252.00,A,5320.67259,N,00615.27054,W,1.445,39.48,070725,,,A,V*2F
$GNVTG,39.48,T,,M,1.445,N,2.677,K,A*15
$GNGGA,192252.00,5320.67259,N,00615.27054,W,1,12,0.81,-5.8,M,52.9,M,,*76
$GNGSA,A,3,13,15,30,24,20,05,18,,,,,,1.37,0.81,1.10,1*00
$GNGSA,A,3,70,85,68,78,79,80,69,,,,,,1.37,0.81,1.10,2*0C
$GNGSA,A,3,06,09,11,04,36,,,,,,,,1.37,0.81,1.10,3*01
$GNGSA,A,3,24,26,33,14,21,,,,,,,,1.37,0.81,1.10,4*0C
$GPGSV,4,1,14,05,54,197,28,07,14,059,,08,07,028,,13,85,313,34,1*67
$GPGSV,4,2,14,14,43,114,,15,49,287,26,18,23,295,21,20,27,179,25,1*6B
$GPGSV,4,3,14,21,28,165,,22,35,134,23,23,16,319,,24,11,238,19,1*66
$GPGSV,4,4,14,27,02,356,,30,44,066,34,1*62
$GLGSV,3,1,09,68,21,117,19,69,71,095,31,70,35,309,11,78,35,040,23,1*71
$GLGSV,3,2,09,79,67,124,30,80,25,187,26,85,13,274,27,86,19,332,18,1*78
$GLGSV,3,3,09,87,07,013,,1*4B
$GAGSV,3,1,12,04,83,080,30,06,68,282,28,09,42,280,19,10,04,209,,7*7F
$GAGSV,3,2,12,11,19,231,23,19,24,096,,21,33,059,18,23,38,126,20,7*72
$GAGSV,3,3,12,27,01,019,,31,09,170,17,34,14,335,,36,31,284,25,7*7E
$GBGSV,2,1,07,09,03,054,,10,11,072,,14,80,259,23,21,16,130,18,1*70
$GBGSV,2,2,07,24,39,190,35,26,64,106,18,33,54,297,22,1*46
$GNGLL,5320.67259,N,00615.27054,W,192252.00,A,A*67
$GNRMC,192253.00,A,5320.67288,N,00615.27020,W,1.442,50.55,070725,,,A,V*25
$GNVTG,50.55,T,,M,1.442,N,2.671,K,A*17
$GNGGA,192253.00,5320.67288,N,00615.27020,W,1,12,0.78,-5.5,M,52.9,M,,*73
$GNGSA,A,3,13,15,30,24,20,05,18,,,,,,1.33,0.78,1.07,1*04
$GNGSA,A,3,70,85,68,78,79,80,69,,,,,,1.33,0.78,1.07,2*08
$GNGSA,A,3,06,09,11,04,36,,,,,,,,1.33,0.78,1.07,3*05
$GNGSA,A,3,24,26,33,14,21,,,,,,,,1.33,0.78,1.07,4*08
$GNRMC,192300.00,A,5320.67533,N,00615.27039,W,0.914,,070725,,,A,V*09
$GNVTG,,T,,M,0.914,N,1.692,K,A*3D
$GNGGA,192300.00,5320.67533,N,00615.27039,W,1,12,0.85,-5.2,M,52.9,M,,*7E
$GNGSA,A,3,13,15,30,24,20,05,18,,,,,,1.47,0.85,1.20,1*00
$GNGSA,A,3,70,85,68,78,79,80,69,,,,,,1.47,0.85,1.20,2*0C
$GNGSA,A,3,06,09,11,04,36,,,,,,,,1.47,0.85,1.20,3*01
$GNGSA,A,3,24,26,33,14,21,,,,,,,,1.47,0.85,1.20,4*0C
$GPGSV,4,1,14,05,54,197,32,07,14,059,,08,07,028,,13,85,313,39,1*61
$GPGSV,4,2,14,14,43,114,,15,49,287,27,18,23,295,25,20,27,179,25,1*6E
$GPGSV,4,3,14,21,28,165,,22,35,134,29,23,16,319,,24,11,238,16,1*63
$GPGSV,4,4,14,27,02,356,,30,44,066,32,1*64
$GLGSV,3,1,09,68,21,117,34,69,71,095,37,70,35,309,09,78,35,040,21,1*73
$GLGSV,3,2,09,79,67,124,35,80,25,187,30,85,13,274,19,86,19,332,20,1*7C
$GLGSV,3,3,09,87,07,013,,1*4B
$GAGSV,3,1,12,04,83,080,32,06,68,282,23,09,42,280,29,10,04,209,,7*75
$GAGSV,3,2,12,11,19,231,17,19,24,096,,21,33,059,29,23,38,126,31,7*77
$GAGSV,3,3,12,27,01,019,,31,09,170,18,34,14,335,,36,31,284,26,7*72
$GBGSV,2,1,07,09,03,054,,10,11,072,,14,80,259,20,21,16,130,19,1*72
$GBGSV,2,2,07,24,39,190,30,26,64,106,39,33,54,297,25,1*47
$GNGLL,5320.67533,N,00615.27039,W,192300.00,A,A*61
$GNRMC,192301.00,A,5320.67526,N,00615.27022,W,0.607,,070725,,,A,V*0B
$GNVTG,,T,,M,0.607,N,1.124,K,A*3A
$GNGGA,192301.00,5320.67526,N,00615.27022,W,1,12,0.91,-5.8,M,52.9,M,,*7E
$GNGSA,A,3,13,15,30,24,20,05,18,,,,,,1.51,0.91,1.21,1*03
$GNGSA,A,3,85,68,78,79,80,69,,,,,,,1.51,0.91,1.21,2*08
$GNGSA,A,3,06,09,11,04,36,,,,,,,,1.51,0.91,1.21,3*02
$GNGSA,A,3,24,26,33,14,21,,,,,,,,1.51,0.91,1.21,4*0F
$GPGSV,4,1,14,05,54,197,25,07,14,059,,08,07,028,,13,85,313,27,1*68
$GPGSV,4,2,14,14,43,114,,15,49,287,32,18,23,295,27,20,27,179,22,1*6F
$GPGSV,4,3,14,21,28,165,,22,35,134,30,23,16,319,,24,11,238,15,1*68
$GPGSV,4,4,14,27,02,356,,30,44,066,31,1*67
$GLGSV,3,1,09,68,21,117,34,69,71,095,28,70,35,309,07,78,35,040,20,1*72
$GLGSV,3,2,09,79,67,124,33,80,25,187,40,85,13,274,20,86,19,332,21,1*76
$GLGSV,3,3,09,87,07,013,,1*4B
$GAGSV,3,1,12,04,83,080,29,06,68,282,24,09,42,280,23,10,04,209,,7*72
$GAGSV,3,2,12,11,19,231,16,19,24,096,,21,33,059,29,23,38,126,26,7*70
$GAGSV,3,3,12,27,01,019,,31,09,170,18,34,14,335,,36,31,284,26,7*72
$GBGSV,2,1,07,09,03,054,,10,11,072,,14,80,259,22,21,16,130,18,1*71
$GBGSV,2,2,07,24,39,190,30,26,64,106,33,33,54,297,25,1*4D
$GNGLL,5320.67526,N,00615.27022,W,192301.00,A,A*6E
$GNRMC,192302.00,A,5320.67536,N,00615.27073,W,0.895,,070725,,,A,V*08
$GNVTG,,T,,M,0.895,N,1.658,K,A*33
$GNGGA,192302.00,5320.67536,N,00615.27073,W,1,12,0.84,-5.5,M,52.9,M,,*71
$GNGSA,A,3,13,15,30,24,20,05,18,,,,,,1.46,0.84,1.19,1*0A
$GNGSA,A,3,70,85,68,78,79,80,69,,,,,,1.46,0.84,1.19,2*06
$GNGSA,A,3,06,09,11,04,36,,,,,,,,1.46,0.84,1.19,3*0B
$GNGSA,A,3,24,26,33,14,21,,,,,,,,1.46,0.84,1.19,4*06
$GPGSV,4,1,14,05,54,197,26,07,14,059,,08,07,028,,13,85,313,29,1*65
$GPGSV,4,2,14,14,43,114,,15,49,287,28,18,23,295,31,20,27,179,30,1*60
$GPGSV,4,3,14,21,28,165,,22,35,134,30,23,16,319,,24,11,238,17,1*6A
$GPGSV,4,4,14,27,02,356,,30,44,066,36,1*60
$GLGSV,3,1,09,68,21,117,27,69,71,095,33,70,35,309,13,78,35,040,21,1*7E
$GLGSV,3,2,09,79,67,124,28,80,25,187,34,85,13,274,22,86,19,332,19,1*76
$GLGSV,3,3,09,87,07,013,,1*4B
$GAGSV,3,1,12,04,83,080,29,06,68,282,24,09,42,280,22,10,04,209,,7*73
$GAGSV,3,2,12,11,19,231,15,19,24,096,,21,33,059,29,23,38,126,32,7*76
$GAGSV,3,3,12,27,01,019,,31,09,170,17,34,14,335,,36,31,284,27,7*7C
$GBGSV,2,1,07,09,03,054,,10,11,072,,14,80,259,21,21,16,130,18,1*72
$GBGSV,2,2,07,24,39,190,26,26,64,106,37,33,54,297,27,1*4C
$GNGLL,5320.67536,N,00615.27073,W,192302.00,A,A*68
$GNRMC,192303.00,A,5320.67575,N,00615.27037,W,0.893,331.35,070725,,,A,V*11
$GNVTG,331.35,T,,M,0.893,N,1.654,K,A*20
$GNGGA,192303.00,5320.67575,N,00615.27037,W,1,12,0.92,-7.7,M,52.9,M,,*70
$GNGSA,A,3,13,15,30,24,20,05,18,,,,,,1.52,0.92,1.21,1*03
$GNGSA,A,3,70,85,68,78,79,80,69,,,,,,1.52,0.92,1.21,2*0F
$GNGSA,A,3,06,09,11,04,36,,,,,,,,1.52,0.92,1.21,3*02
$GNGSA,A,3,24,26,33,14,21,,,,,,,,1.52,0.92,1.21,4*0F
$GPGSV,4,1,14,05,54,197,26,07,14,059,,08,07,028,,13,85,313,33,1*6E
$GPGSV,4,2,14,14,43,114,,15,49,287,44,18,23,295,44,20,27,179,26,1*6F
$GPGSV,4,3,14,21,28,165,,22,35,134,27,23,16,319,,24,11,238,16,1*6D
$GPGSV,4,4,14,27,02,356,,30,44,066,31,1*67
$GLGSV,3,1,09,68,21,117,35,69,71,095,32,70,35,309,15,78,35,040,21,1*7A
$GLGSV,3,2,09,79,67,124,36,80,25,187,40,85,13,274,24,86,19,332,19,1*7C
$GLGSV,3,3,09,87,07,013,,1*4B
$GAGSV,3,1,12,04,83,080,35,06,68,282,35,09,42,280,32,10,04,209,,7*7F
$GAGSV,3,2,12,11,19,231,14,19,24,096,,21,33,059,29,23,38,126,28,7*7C
$GAGSV,3,3,12,27,01,019,,31,09,170,17,34,14,335,,36,31,284,40,7*7D
$GBGSV,2,1,07,09,03,054,,10,11,072,,14,80,259,19,21,16,130,19,1*78
$GBGSV,2,2,07,24,39,190,31,26,64,106,25,33,54,297,45,1*4D
$GNGLL,5320.67575,N,00615.27037,W,192303.00,A,A*6E
$GNRMC,192304.00,A,5320.67568,N,00615.27072,W,1.105,,070725,,,A,V*05
$GNVTG,,T,,M,1.105,N,2.046,K,A*38
$GNGGA,192304.00,5320.67568,N,00615.27072,W,1,12,0.87,-7.9,M,52.9,M,,*70
$GNGSA,A,3,13,15,30,24,20,05,18,,,,,,1.48,0.87,1.20,1*0D
$GNGSA,A,3,70,85,68,78,79,80,69,,,,,,1.48,0.87,1.20,2*01
$GNGSA,A,3,06,09,11,04,36,,,,,,,,1.48,0.87,1.20,3*0C
$GNGSA,A,3,24,26,33,14,21,,,,,,,,1.48,0.87,1.20,4*01
$GPGSV,4,1,14,05,54,197,26,07,14,059,,08,07,028,,13,85,313,40,1*6A
$GPGSV,4,2,14,14,43,114,,15,49,287,47,18,23,295,36,20,27,179,28,1*67
$GPGSV,4,3,14,21,28,165,,22,35,134,27,23,16,319,,24,11,238,18,1*63
$GPGSV,4,4,14,27,02,356,,30,44,066,31,1*67
$GLGSV,3,1,09,68,21,117,28,69,71,095,29,70,35,309,13,78,35,040,28,1*73
$GLGSV,3,2,09,79,67,124,29,80,25,187,27,85,13,274,35,86,19,332,19,1*73
$GLGSV,3,3,09,87,07,013,,1*4B
$GAGSV,3,1,12,04,83,080,37,06,68,282,47,09,42,280,48,10,04,209,,7*75
$GAGSV,3,2,12,11,19,231,12,19,24,096,,21,33,059,27,23,38,126,26,7*7A
$GAGSV,3,3,12,27,01,019,,31,09,170,15,34,14,335,,36,31,284,45,7*7A
$GBGSV,2,1,07,09,03,054,,10,11,072,,14,80,259,28,21,16,130,29,1*79
$GBGSV,2,2,07,24,39,190,22,26,64,106,25,33,54,297,45,1*4F
$GNGLL,5320.67568,N,00615.27072,W,192304.00,A,A*64
$GNRMC,192305.00,A,5320.67574,N,00615.27125,W,1.524,,070725,,,A,V*0D
$GNVTG,,T,,M,1.524,N,2.822,K,A*35
$GNGGA,192305.00,5320.67574,N,00615.27125,W,1,12,1.67,-7.9,M,52.9,M,,*70
$GNGSA,A,3,13,15,30,24,20,05,18,,,,,,2.32,1.67,1.61,1*09
$GNGSA,A,3,70,85,68,78,79,80,69,,,,,,2.32,1.67,1.61,2*05
$GNGSA,A,3,06,09,11,04,36,,,,,,,,2.32,1.67,1.61,3*08
$GNGSA,A,3,24,26,33,14,,,,,,,,,2.32,1.67,1.61,4*06
$GPGSV,4,1,14,05,54,197,23,07,14,059,,08,07,028,,13,85,313,34,1*6C
$GPGSV,4,2,14,14,43,114,,15,49,287,36,18,23,295,32,20,27,179,28,1*65
$GPGSV,4,3,14,21,28,165,,22,35,134,26,23,16,319,,24,11,238,17,1*6D
$GPGSV,4,4,14,27,02,356,,30,44,066,26,1*61
$GLGSV,3,1,09,68,21,117,33,69,71,095,29,70,35,309,16,78,35,040,22,1*76
$GLGSV,3,2,09,79,67,124,28,80,25,187,26,85,13,274,37,86,19,332,18,1*70
$GLGSV,3,3,09,87,07,013,,1*4B
$GAGSV,3,1,12,04,83,080,32,06,68,282,43,09,42,280,40,10,04,209,,7*7C
$GAGSV,3,2,12,11,19,231,10,19,24,096,,21,33,059,27,23,38,126,26,7*78
$GAGSV,3,3,12,27,01,019,,31,09,170,13,34,14,335,,36,31,284,35,7*7B
$GBGSV,2,1,07,09,03,054,,10,11,072,,14,80,259,30,21,16,130,,1*7B
$GBGSV,2,2,07,24,39,190,21,26,64,106,27,33,54,297,38,1*44
$GNGLL,5320.67574,N,00615.27125,W,192305.00,A,A*6B
$GNRMC,192306.00,A,5320.67612,N,00615.27175,W,1.554,328.67,070725,,,A,V*19
$GNVTG,328.67,T,,M,1.554,N,2.879,K,A*2A
$GNGGA,192306.00,5320.67612,N,00615.27175,W,1,12,1.67,-8.1,M,52.9,M,,*72
$GNGSA,A,3,13,15,30,24,05,18,,,,,,,2.32,1.67,1.61,1*0B
$GNGSA,A,3,70,85,68,78,79,80,69,,,,,,2.32,1.67,1.61,2*05
$GNGSA,A,3,06,09,11,04,36,,,,,,,,2.32,1.67,1.61,3*08
$GNGSA,A,3,24,26,33,14,,,,,,,,,2.32,1.67,1.61,4*06
$GPGSV,4,1,14,05,54,197,24,07,14,059,,08,07,028,,13,85,313,33,1*6C
$GPGSV,4,2,14,14,43,114,,15,49,287,43,18,23,295,31,20,27,179,,1*6E
$GPGSV,4,3,14,21,28,165,,22,35,134,26,23,16,319,,24,11,238,18,1*62
$GPGSV,4,4,14,27,02,356,,30,44,066,32,1*64
$GNRMC,192313.00,A,5320.67863,N,00615.27620,W,1.905,304.04,070725,,,A,V*11
$GNVTG,304.04,T,,M,1.905,N,3.529,K,A*20
$GNGGA,192313.00,5320.67863,N,00615.27620,W,1,12,1.71,-10.9,M,52.9,M,,*4F
$GNGSA,A,3,13,15,30,24,14,05,,,,,,,2.36,1.71,1.63,1*06
$GNGSA,A,3,70,85,68,78,79,80,69,,,,,,2.36,1.71,1.63,2*04
$GNGSA,A,3,06,09,11,04,36,,,,,,,,2.36,1.71,1.63,3*09
$GNGSA,A,3,26,33,14,,,,,,,,,,2.36,1.71,1.63,4*01
$GPGSV,4,1,14,05,54,197,27,07,14,059,18,08,07,028,,13,85,313,33,1*66
$GPGSV,4,2,14,14,43,114,26,15,49,287,44,18,23,295,,20,27,179,,1*6F
$GPGSV,4,3,14,21,28,165,,22,35,134,23,23,16,319,,24,11,238,21,1*6D
$GPGSV,4,4,14,27,02,356,,30,44,066,29,1*6E
$GLGSV,3,1,09,68,21,117,29,69,71,095,31,70,35,309,24,78,35,040,25,1*72
$GLGSV,3,2,09,79,67,124,33,80,25,187,23,85,13,274,51,86,19,332,24,1*70
$GLGSV,3,3,09,87,07,013,,1*4B
$GAGSV,3,1,12,04,83,082,29,06,68,282,43,09,43,281,43,10,04,209,,7*77
$GAGSV,3,2,12,11,18,231,13,19,24,096,,21,33,059,23,23,38,126,22,7*7A
$GAGSV,3,3,12,27,01,019,,31,09,170,,34,14,335,,36,31,284,41,7*7A
$GBGSV,2,1,07,09,03,054,,10,11,072,,14,80,259,35,21,16,130,,1*7E
$GBGSV,2,2,07,24,39,190,24,26,64,106,26,33,54,297,44,1*4B
$GNGLL,5320.67863,N,00615.27620,W,192313.00,A,A*65
$GNRMC,192314.00,A,5320.67890,N,00615.27695,W,2.095,302.44,070725,,,A,V*15
$GNVTG,302.44,T,,M,2.095,N,3.880,K,A*2F
$GNGGA,192314.00,5320.67890,N,00615.27695,W,1,12,1.71,-11.1,M,52.9,M,,*43
$GNGSA,A,3,13,15,30,24,14,05,07,,,,,,2.36,1.71,1.63,1*01
$GNGSA,A,3,70,85,68,78,79,80,69,,,,,,2.36,1.71,1.63,2*04
$GNGSA,A,3,06,09,11,04,36,,,,,,,,2.36,1.71,1.63,3*09
$GNGSA,A,3,26,33,14,,,,,,,,,,2.36,1.71,1.63,4*01
$GPGSV,4,1,14,05,54,197,32,07,13,059,18,08,07,028,,13,85,313,40,1*61
$GPGSV,4,2,14,14,43,114,32,15,49,287,45,18,23,295,,20,27,179,,1*6B
$GPGSV,4,3,14,21,28,165,,22,35,134,24,23,16,319,,24,11,238,20,1*6B
$GPGSV,4,4,14,27,02,356,,30,44,066,33,1*65
$GLGSV,3,1,09,68,21,117,28,69,71,095,36,70,35,309,22,78,35,040,25,1*72
$GLGSV,3,2,09,79,67,124,28,80,25,187,23,85,13,274,49,86,19,332,23,1*74
$GLGSV,3,3,09,87,07,013,,1*4B
$GAGSV,3,1,12,04,83,082,33,06,68,282,38,09,43,281,45,10,04,209,,7*76
$GAGSV,3,2,12,11,18,231,12,19,24,096,,21,33,059,29,23,38,126,24,7*77
$GAGSV,3,3,12,27,01,019,,31,09,170,,34,14,335,,36,31,284,45,7*7E
$GBGSV,2,1,07,09,03,054,,10,11,072,,14,80,259,35,21,16,130,,1*7E
$GBGSV,2,2,07,24,39,190,23,26,64,106,28,33,54,297,44,1*42
$GNGLL,5320.67890,N,00615.27695,W,192314.00,A,A*60
$GNRMC,192315.00,A,5320.67921,N,00615.27791,W,2.111,307.99,070725,,,A,V*12
$GNVTG,307.99,T,,M,2.111,N,3.909,K,A*27
$GNGGA,192315.00,5320.67921,N,00615.27791,W,1,12,1.27,-10.8,M,52.9,M,,*47
$GNGSA,A,3,13,15,30,24,14,05,07,,,,,,1.98,1.27,1.52,1*07
$GNGSA,A,3,70,85,68,78,79,80,69,,,,,,1.98,1.27,1.52,2*02
$GNGSA,A,3,06,09,11,04,36,,,,,,,,1.98,1.27,1.52,3*0F
$GNGSA,A,3,26,33,14,,,,,,,,,,1.98,1.27,1.52,4*07
$GPGSV,4,1,14,05,54,197,29,07,13,059,18,08,07,028,,13,85,313,39,1*65
$GPGSV,4,2,14,14,43,114,32,15,49,287,49,18,23,295,,20,27,179,,1*67
$GPGSV,4,3,14,21,28,165,,22,35,134,24,23,16,319,,24,11,238,20,1*6B
$GPGSV,4,4,14,27,02,356,,30,44,066,28,1*6F
$GLGSV,3,1,09,68,21,117,27,69,71,095,35,70,35,309,29,78,35,040,25,1*75
$GLGSV,3,2,09,79,67,124,37,80,25,187,23,85,13,274,47,86,19,332,23,1*74
$GLGSV,3,3,09,87,07,013,,1*4B
$GAGSV,3,1,12,04,83,082,35,06,68,282,43,09,43,281,39,10,04,209,,7*77
$GAGSV,3,2,12,11,18,231,11,19,24,096,,21,33,059,24,23,38,126,24,7*79
$GAGSV,3,3,12,27,01,019,,31,09,170,,34,14,335,,36,31,284,42,7*79
$GBGSV,2,1,07,09,03,054,,10,11,072,,14,80,259,35,21,16,130,,1*7E
$GBGSV,2,2,07,24,39,190,,26,64,106,28,33,54,297,45,1*42
$GNGLL,5320.67921,N,00615.27791,W,192315.00,A,A*6F
$GNRMC,192316.00,A,5320.67937,N,00615.27879,W,2.136,301.86,070725,,,A,V*12
$GNVTG,301.86,T,,M,2.136,N,3.957,K,A*21
$GNGGA,192316.00,5320.67937,N,00615.27879,W,1,12,1.53,-11.1,M,52.9,M,,*41
$GNGSA,A,3,13,15,30,24,14,05,07,,,,,,2.22,1.53,1.61,1*06
$GNGSA,A,3,70,85,68,78,79,80,69,,,,,,2.22,1.53,1.61,2*03
$GNGSA,A,3,06,09,11,04,36,,,,,,,,2.22,1.53,1.61,3*0E
$GNGSA,A,3,26,33,14,,,,,,,,,,2.22,1.53,1.61,4*06
$GPGSV,4,1,14,05,54,197,36,07,13,059,18,08,07,028,,13,85,313,40,1*65
$GPGSV,4,2,14,14,43,114,27,15,49,287,47,18,23,295,,20,27,179,,1*6D
$GPGSV,4,3,14,21,28,165,,22,35,134,24,23,16,319,,24,11,238,19,1*61
$GPGSV,4,4,14,27,02,356,,30,44,066,29,1*6E
$GLGSV,3,1,09,68,21,117,36,69,71,095,32,70,35,309,24,78,35,040,24,1*7E
$GLGSV,3,2,09,79,67,124,35,80,25,187,23,85,13,274,43,86,19,332,22,1*73
$GLGSV,3,3,09,87,07,013,,1*4B
$GAGSV,3,1,12,04,83,082,34,06,68,282,42,09,43,281,47,10,04,209,,7*7E
$GAGSV,3,2,12,11,18,231,14,19,24,096,,21,33,059,26,23,38,126,25,7*7F
$GAGSV,3,3,12,27,01,019,,31,09,170,,34,14,335,,36,31,284,44,7*7F
$GBGSV,2,1,07,09,03,054,,10,11,072,,14,80,259,32,21,16,130,,1*79
$GBGSV,2,2,07,24,39,190,,26,64,106,28,33,54,297,45,1*42
$GNGLL,5320.67937,N,00615.27879,W,192316.00,A,A*62
$GNRMC,192317.00,A,5320.67987,N,00615.27968,W,2.182,295.00,070725,,,A,V*14
$GNVTG,295.00,T,,M,2.182,N,4.040,K,A*24
$GNGGA,192317.00,5320.67987,N,00615.27968,W,1,12,1.27,-11.7,M,52.9,M,,*4F
$GNGSA,A,3,13,15,30,24,14,05,07,,,,,,1.98,1.27,1.52,1*07
$GNGSA,A,3,70,85,68,78,79,80,69,,,,,,1.98,1.27,1.52,2*02
